Year_of_last_filed_report,NPRI_Site_ID,Company_Name,Facility_Name,Address_line_1,Address_line_2,City,Province,Postal_Code,Key_Industrial_Sector,Datum,Latitude,Longitude,PRV_WSHD_I,NHN_TWS_ID
2021,1,Alberta-Pacific Forest Industries Inc.,Alberta-Pacific Forest Industries Inc.,,,County of Athabasca,AB,T0A 0M0,Pulp and Paper,WGS84,54.923116,-112.861867,AB-17050201,07CB
2009,4,TEMBEC,PINE FALLS OPERATIONS,Highway 11 and Mill Road,UTM 14U E0696466 N5605378,PINE FALLS,MB,R0E1M0,Pulp and Paper,WGS84,50.5686,-96.2267,NA,05PF
2007,7,HEXION SPECIALTY CHEMICALS CANADA INC.,HEXION - LAVAL,2075 Francis Hughes,,LAVAL,QC,H7S1N5,Chemicals,WGS84,45.5797,-73.7217,NA,210
2003,9,"BORDEN CHEMICAL CANADA, INC.",BORDEN CHEMICAL - NORTH BAY,105 Drury Street,,NORTH BAY,ON,P1A3Z7,Chemicals,WGS84,46.3098,-79.4412,ON-02DD-05,02DD
2021,11,Hexion Canada Inc.,Hexion Canada Inc.- Edmonton Facility,,,Edmonton,AB,T5V 1E1,Chemicals,WGS84,53.5823,-113.5886,AB-11020201,05DF
2006,13,HEXION SPECIALTY CHEMICAL CANADA INC.,HEXION - VANCOUVER,1550 West 75 Avenue,,VANCOUVER,BC,V6P3G3,Chemicals,WGS84,49.2046,-123.1419,BC_103,08MH
2021,15,"Dofasco Inc., Stelco Inc.",Baycoat,,,Hamilton,ON,L8N 3K7,Other Manufacturing,WGS84,43.2428,-79.7503,NA,209
2012,18,Novelis Inc.,Usine Saguenay,2040 Fay,,JONQUIÈRE,QC,G7S4K6,Aluminum,WGS84,48.4211,-71.1898,NA,02RH
2021,21,Bolton Steel Tube Co. Ltd.,Bolton Plant,,,Bolton,ON,L7E 5B8,Iron and Steel,WGS84,43.8656,-79.7308,ON-02HC-03,02HC
2018,22,Nylene Canada Inc.,Nylene Canada Inc.,200 McNab Street,,ARNPRIOR,ON,K7S3P2,Other Manufacturing,WGS84,45.4358,-76.3372,ON-02KF-01,02KF
1997,25,BASF Canada Inc.,Brantford Site,10 Craig Street,,BRANTFORD,ON,N3T5M3,Chemicals,WGS84,43.1629,-80.2464,ON-02GB-03,02GB
2021,28,BASF Canada Inc.,CORNWALL SITE,,,Cornwall,ON,K6J 2B5,Chemicals,WGS84,45.0189,-74.7551,ON-02MCA03,02MC
2021,31,BASF Canada Inc.,Windsor Site,,,Windsor,ON,N9A 5Y1,Chemicals,WGS84,42.3111,-83.0456,ON-02GHA02,02GH
2021,34,BASF Canada Inc.,TORONTO SITE,,,Toronto,ON,M9W 1K1,Chemicals,WGS84,43.6903,-79.5972,NA,02HC
1995,37,BASF Canada Inc. - Sarnia Site,,973 South Vidal Street,,SARNIA,ON,N7T7M2,Chemicals,WGS84,42.9509,-82.414,NA,02FF
2021,40,Masonite International Corporation,Windsor,,,Windsor,QC,J1S 2T2,Wood Products,WGS84,45.582729,-71.995388,NA,02OF
2007,43,BASF CANADA,GEORGETOWN SITE,80  TODD Road,,GEORGETOWN,ON,L7G4R7,Other Manufacturing,WGS84,43.6533,-79.8953,ON-02HB-05,02HB
2011,49,ADS inc.,Texel Matériaux Enduits,1145 Bélanger Rue,,SHERBROOKE,QC,J1K2B1,Plastics and Rubber,WGS84,45.388,-71.9428,NA,02OE
2009,52,BÉTONEL,USINE DE TERREBONNE,4170 Nancy,,TERREBONNE,QC,J6X4H4,Chemicals,WGS84,45.7406,-73.6942,NA,02OA
2017,54,Glencore Canada Corporation,Brunswick Mine,Highway 430 Highway West,,BATHURST,NB,E8G2M1,Mining and Quarrying,WGS84,47.4717,-65.8897,NA,01BJ
2021,57,Bombardier Inc.,USINE DE LA POCATIÈRE,,,La Pocatière,QC,G0R 1Z0,Transportation Equipment Mfg.,WGS84,47.3594,-70.0509,NA,210
1993,61,BRIDPORT INDUSTRIES LIMITED,,,,,NS,,,WGS84,44.66378,-63.56803,NA,01EJ
2018,64,B&W Heat Treating Canada ULC,Plant No. 1,60 Steckle Place,,KITCHENER,ON,N2G2C3,Other Manufacturing,WGS84,43.4036,-80.4608,ON-02GA-02,02GA
2009,65,BATTENFELD GREASE CANADA,BATTENFELD GREASE CANADA,68 Titan Road,,ETOBICOKE,ON,M8Z2J8,Petroleum and Coal Product Refining and Mfg.,WGS84,43.6297,-79.5231,NA,02HC
2021,70,TI Automotive Canada Inc.,Bramalea Plant,,,Bramalea,ON,L6T 1G3,Transportation Equipment Mfg.,WGS84,43.7028,-79.7039,ON-02HC-01,02HC
2004,78,GE BETZ CANADA,N/A,"75, Hymus Blvd",,POINTE-CLAIRE,QC,H9R1E2,Chemicals,WGS84,45.4542,-73.8278,NA,210
2021,79,Suez Water Technologies & Solutions Canada,Suez Water Technologies & Solutions Canada- EDMONTON,,,Edmonton,AB,T5L 2H8,Chemicals,WGS84,53.5894,-113.5747,AB-11020201,05DF
2000,87,ACCUFLEX INDUSTRIAL HOSE LTD.,,50 Malclom Rd.,,GUELPH,ON,N1K1A9,Plastics and Rubber,WGS84,43.5381,-80.3186,ON-02GA-09,02GA
2007,90,SAMUEL STRAPPING SYSTEMS,SCARBOROUGH LOCATION,743 WARDEN AVENUE,,SCARBOROUGH,ON,M1L4A9,Iron and Steel,WGS84,43.7172,-79.2832,ON-02HC-06,02HC
2016,92,CCL Container Canada,CCL Container - Aerosol Division Penetanguishene,163 Robert Street,,PENETANGUISHENE,ON,L9M2G2,Aluminum,WGS84,44.7775,-79.9147,NA,02ED
2004,96,AFGD GLASS,FABRICATED PRODUCTS DIVISION,75  DONEY Crescent,,CONCORD,ON,L4K1P6,"Cement, Lime and Other Non-Metallic Minerals",WGS84,43.7941,-79.5029,ON-02HC-06,02HC
2021,99,Les Mines Agnico Eagle Limitée,Division Laronde,,,Rouyn-Noranda,QC,J0Y 1C0,Mining and Quarrying,WGS84,48.2375,-78.3958,NA,02JB
2006,100,LES PRODUITS AGROB,LES PRODUITS AGROB - MERCIER,1143 Boul St-Jean-Baptiste,,MERCIER,QC,J6R2L1,Chemicals,WGS84,45.3004,-73.7522,NA,02OA
2021,105,Aldex Chemical Co. Ltd.,ALDEX CHEMICAL,,,Granby,QC,J2G 8V1,Other Manufacturing,WGS84,45.3907,-72.7547,NA,02OG
2021,106,Canadian Natural Resources Limited,Dunvegan Sour Gas Plant,,,Fairview,AB,,Conventional Oil and Gas extraction,WGS84,55.9967,-118.5336,AB-18010209,07FD
2005,108,NEWMONT CANADA LTD,HOLLOWAY MINE (SHAFT #3),P.O. Box 279,Hwy# 101 E,MATHESON,ON,P0K1N0,Mining and Quarrying,WGS84,48.5212,-81.1218,ON-04MD-08,04MD
2021,109,Alumabrite Anodizing,ALUMABRITE ANODIZING,,,Hamilton,ON,L8E 3L9,Aluminum,WGS84,43.2344,-79.7439,NA,02HA
1993,110,Almico Products Ltd.,,,,,ON,,,WGS84,44.8847,-76.0172,ON-02LA-04,02LA
2021,111,Apotex Inc.,Apotex Inc. 150 Signet Drive,,,Toronto,ON,M9L 1T9,Chemicals,WGS84,43.7639,-79.5408,ON-02HC-02,02HC
1997,112,Achitectural Onament Inc.,,216 Rivermede Rd. Unit 7 & 8,,CNCORD,ON,L4K3M6,Plastics and Rubber,WGS84,43.8112,-79.4898,ON-02HC-06,02HC
1998,113,A.R.CLARKE LTD.,,633 Eastern Ave,,TORONTO,ON,M4M1E5,Other Manufacturing,WGS84,43.6587,-79.3373,NA,209
2012,116,Progress Plastiques Cie.,usine rue Canadien,2400 Canadien,,DRUMMONDVILLE,QC,J2C7W3,Chemicals,WGS84,45.8795,-72.5458,NA,02OF
2009,117,ARVINMERITOR - RIDE CONTROL,ARVINMERITOR - RIDE CONTROL,3560-3600 Lakeshore Boulevard West,,TORONTO,ON,M8W1N8,Transportation Equipment Mfg.,WGS84,43.595,-79.5383,NA,209
2021,120,Univar Solutions Canada Ltd,Mississauga,,,Mississauga,ON,L5J 4E7,Other (Except Manufacturing),WGS84,43.4988,-79.6446,NA,02HB
2021,123,Associated Tube Industries,A.T.I,,,Markham,ON,L3R 1A7,Iron and Steel,WGS84,43.8236,-79.3514,ON-02HC-06,02HC
2021,125,Atlantic Packaging Products Ltd.,Whitby,,,Whitby,ON,L1N 9E1,Pulp and Paper,WGS84,43.8606,-78.9017,NA,02HD
2021,126,Celanese Canada ULC.,Edmonton Site,,,Edmonton,AB,T6A 0L2,Chemicals,WGS84,53.5397,-113.4092,AB-11030101,05EB
1997,127,Parmalat Canada,New Dundee,63 Benjamin St.,,NEW DUNDEE,ON,N0B2E0,Other Manufacturing,WGS84,43.3507,-80.5347,ON-02GA-06,02GA
2013,135,Hood Packaging Corporation,Burlington Plastics Division,2360 MCDOWELL ROAD,,BURLINGTON,ON,L7R4A1,Plastics and Rubber,WGS84,43.3475,-79.8008,NA,02HB
2010,136,BORGWARNER CANADA INC.,N/A,385 Second Avenue,,SIMCOE,ON,N3Y4L5,Transportation Equipment Mfg.,WGS84,42.8486,-80.3197,ON-02GC-02,02GC
2015,139,The Butcher Engineering Enterprises Ltd.,Butcher Industrial Finishings Inc.(Orenda),120 Orenda Road,,BRAMPTON,ON,L6W1W2,Other Manufacturing,WGS84,43.6956,-79.7328,ON-02HC-01,02HC
2021,144,CAE Inc.,Usine de Saint-Laurent,,,Saint-Laurent,QC,H4T 1G6,Transportation Equipment Mfg.,WGS84,45.4769,-73.7028,NA,210
1997,147,Cambior,Usine Yvan-Vezina,1071 chemin du Parc,,DESTOR,QC,J9X5A3,Mining and Quarrying,WGS84,48.4583,-78.95,NA,02JB
2021,151,Inossman North American Corp.,CANADA ALLOY CASTINGS,,,Kitchener,ON,N2C 1S2,Iron and Steel,WGS84,43.4005,-80.4475,ON-02GA-02,02GA
2021,152,Carpenter Canada Co - Calgary,Calgary Division,,,Calgary,AB,T2C 2A9,Plastics and Rubber,WGS84,51.0011,-113.9808,AB-04020901,05BM
2021,156,Brenntag Canada Inc.,Montreal Facility (QS11),,,Saint-Laurent,QC,H4S 1V1,Other (Except Manufacturing),WGS84,45.4939,-73.7615,NA,210
2021,158,Canada Metal North America Ltd,Usine St-Léonard,,,Saint-Léonard,QC,H1P 2B1,Metals (Except Aluminum and Iron and Steel),WGS84,45.5973,-73.5841,NA,210
2021,159,Bunge Canada ,BUNGE CANADA - ALTONA PLANT,,,Altona,MB,R0G 0B0,Other Manufacturing,WGS84,49.1108,-97.566,NA,05OC
2021,161,Bunge Canada ,BUNGE CANADA - HAMILTON,,,Hamilton,ON,L8N 3K7,Other Manufacturing,WGS84,43.2683,-79.8506,ON-02HB-01,02HB
2021,163,Bunge Canada ,BUNGE CANADA - NIPAWIN PLANT,,,Nipawin,SK,S0E 1E0,Other Manufacturing,WGS84,53.3252,-104.027,NA,05KD
2009,165,BUNGE CANADA,BUNGE CANADA - MONTRÉAL PLANT,1260 Mill Street,,MONTRÉAL,QC,H3K2B5,Other Manufacturing,WGS84,45.4889,-73.5516,NA,210
2008,167,BUNGE CANADA,BUNGE CANADA - TORONTO PLANT,30  WESTON Road,,TORONTO,ON,M6N3P4,Other Manufacturing,WGS84,43.6728,-79.4681,ON-02HC-02,209
2021,169,Bunge Canada ,BUNGE CANADA - WAINWRIGHT PLANT,,,Wainwright,AB,T9W 1S8,Other Manufacturing,WGS84,52.8292,-110.8592,AB-09030101,05FE
1993,171,CARADON CONSUMER PRODUCTS,,,,,ON,,,WGS84,43.6628,-79.6583,ON-02HC-01,02HC
2021,174,GreenMantra Technologies,GreenMantra Technologies,,,Brantford,ON,N3S 5A1,Chemicals,WGS84,43.1483,-80.2556,ON-02GB-03,02GB
2021,177,Coveright Surfaces Canada Inc.,COVERIGHT SURFACES CANADA,,,Cobourg,ON,K9A 4R5,Pulp and Paper,WGS84,43.9578,-78.1197,NA,209
1993,178,CASH MOULD & CASTINGS,,,,,ON,,,WGS84,42.97912,-81.2449,ON-02GD-03,02GD
2021,179,"Voyant Beauty, Inc.",Plant #1,,,Etobicoke,ON,M9W 1M6,Chemicals,WGS84,43.7083,-79.5681,ON-02HC-02,02HC
2021,181,"Voyant Beauty, Inc.",Plant #2,,,Etobicoke,ON,M9W 4J6,Chemicals,WGS84,43.7111,-79.5669,ON-02HC-02,02HC
2001,183,CDM PAPIERS DÉCORS INC,CDM PAPIERS DÉCORS,"3075, BERNIER",,DRUMMONDVILLE,QC,J2C6Y4,Pulp and Paper,WGS84,45.8756,-72.5442,NA,02OF
2021,185,A-Z Foam  Ltd.,A-Z Foam (2012) Ltd.,,,Delta,BC,V3M 5P6,Plastics and Rubber,WGS84,49.1738,-122.9321,BC_103,08MH
2021,188,Fonderie générale du Canada,"Fonderie Générale du Canada, XStrata Zinc Canada",,,Lachine,QC,H8S 1A8,Metals (Except Aluminum and Iron and Steel),WGS84,45.4483,-73.6744,NA,210
2021,191,Centerline (Windsor) Ltd.,Electrodes Division,,,Windsor,ON,N9J 3T8,Other Manufacturing,WGS84,42.2522,-83.0997,ON-02GHA02,02GH
1998,192,"Champion Technologies, Ltd",Calgary Plant,6555-30TH STREET SE,,CALGARY,AB,T2C1R4,Other (Except Manufacturing),WGS84,50.9942,-113.9857,AB-04020901,05BM
2013,193,Omega Coatings Ltd.,Omega Coatings Ltd.,711 Derwent Way,,DELTA,BC,V3M5P9,Chemicals,WGS84,49.1774,-122.931,BC_103,08MH
1993,194,Chesebrough-Pond's Canada,,,,,ON,,,WGS84,43.8792,-79.2792,ON-02HC-07,02HC
1997,196,CV MATERIALS (CANADA) LTD.,,30 Wilson Street,,INGERSOLL,ON,N5C3K1,"Cement, Lime and Other Non-Metallic Minerals",WGS84,43.0442,-80.8807,ON-02GD-05,02GD
2021,199,FCA Canada Inc.,Etobicoke Casting Plant,,,Toronto,ON,M8W 3S3,Metals (Except Aluminum and Iron and Steel),WGS84,43.5958,-79.5406,NA,209
2021,201,City of Peterborough,PTBO WASTE WATER TREATMENT PLANT,,,Peterborough,ON,K9J 1B6,Water and Wastewater Systems,WGS84,44.2754,-78.3165,ON-02HJ-02,02HJ
2019,203,City of Thunder Bay,Bare Point Water Treatment Plant,171 Bare Point Road,,THUNDER BAY,ON,P7B5E4,Water and Wastewater Systems,WGS84,48.4758,-89.1514,NA,201
2008,204,CITY OF THUNDER BAY,LOCH LOMOND WATER TREATMENT PLANT,151  RESERVOIR Road,R.R. #4,THUNDER BAY,ON,P7C4Z2,Water and Wastewater Systems,WGS84,48.3308,-89.2692,NA,02AA
2021,205,City of Thunder Bay,Water Pollution Control Plant,,,Thunder Bay,ON,P7C 2T3,Water and Wastewater Systems,WGS84,48.3989,-89.225,ON-02AB-02,02AB
2021,207,Colortech Inc.,COLORTECH INC. BRAMPTON,,,Brampton,ON,L6T 3V1,Plastics and Rubber,WGS84,43.6972,-79.7044,ON-02HC-01,02HC
2021,209,Greenfield Global Inc.,Tiverton ,,,Tiverton,ON,N0G 2T0,Chemicals,WGS84,44.3193,-81.5657,NA,02FD
2021,210,Greenfield Global Inc.,Brampton,,,Brampton,ON,L6T 3Y4,Other (Except Manufacturing),WGS84,43.7375,-79.6931,NA,02HC
2021,211,Ville de Québec,Incinérateur,,,Québec,QC,G1J 3V9,Waste Treatment and Disposal,WGS84,46.828385,-71.220097,NA,02PD
2021,214,Vibac Canada Inc.,Vibac du Canada,,,Montréal,QC,H1B 5M5,Chemicals,WGS84,45.6483,-73.5172,NA,210
2005,215,COURT GALVANIZING LTD,GUELPH PLANT,134  Dawson Road,PO BOX 424,GUELPH,ON,N1H6K5,Other Manufacturing,WGS84,43.5522,-80.284,ON-02GA-09,02GA
2021,216,Triple M Metal LP,Scarborough,,,Toronto,ON,M1L 4M7,Other (Except Manufacturing),WGS84,43.7214,-79.2781,ON-02HC-06,02HC
2021,222,Cytec Canada Inc.,Welland Plant,,,Niagara Falls,ON,L2H 0Y2,Chemicals,WGS84,43.0472,-79.1583,ON-02HA-02,02HA
2021,223,Mercer Peace River Pulp Ltd. ,Mercer Peace River,,,MD of Northern Lights,AB,T8S 1V7,Pulp and Paper,WGS84,56.3772,-117.1756,AB-18010301,07HA
2021,225,Dajcor Aluminum Ltd.,Dajcor Aluminum Ltd.,,,Chatham,ON,N7M 5J5,Aluminum,WGS84,42.3903,-82.2136,ON-02GE-01,02GE
2015,227,Schott Gemtron Corp.,SCHOTT Gemtron (Canada) Corporation,125 Albert Street,,MIDLAND,ON,L4R4L3,"Cement, Lime and Other Non-Metallic Minerals",WGS84,44.734,-79.851,ON-02ED-02,02ED
2008,231,DELHI INDUSTRIES INC,JAMES ST.,523 James St,,DELHI,ON,N4B2Z3,Iron and Steel,WGS84,42.8475,-80.4897,ON-02GC-04,02GC
1995,238,Dimplex North America Ltd.,,1367 INDUSTRIAL RD.,,CAMBRIDGE,ON,N1R7G8,Other Manufacturing,WGS84,43.3944,-80.329,ON-02GA-01,02GA
2021,239,Cascades Canada ULC,"Cascades Containerboard Packaging, A Division of Cascades Canada ULC.",,,Trenton,ON,K8V 5R8,Pulp and Paper,WGS84,44.1114,-77.5878,ON-02HK-01,02HK
1993,241,Dona Lake Gold Mine Ltd.,,,,,ON,,,WGS84,51.4153,-90.1028,ON-04FAA08,04FA
2015,245,Pactiv Canada Inc.,Brampton Plant,46 Hale Road,,BRAMPTON,ON,L6W3M1,Pulp and Paper,WGS84,43.685,-79.7194,ON-02HC-01,02HC
2021,247,Aya Kitchens & Baths Ltd.,AyA Kitchens & Baths Manufacturing Facility,,,Mississauga,ON,L4X 2Z6,Other Manufacturing,WGS84,43.605,-79.5756,ON-02HC-01,209
2007,249,ASHLAND CANADA,DREW CANADA,525  FINLEY Avenue,,AJAX,ON,L1S2E5,Chemicals,WGS84,43.8347,-79.0279,NA,209
2021,250,Evonik Canada Inc.,Gibbons Site,,,Gibbons,AB,T0A 1N0,Chemicals,WGS84,53.8331,-113.1089,AB-11030101,05EB
2021,252,"Dural, a Division of Multibond Inc",Dural Plant div Multibond.,,,Dorval,QC,H9P 1C9,Chemicals,WGS84,45.4501,-73.7363,NA,210
2011,253,Duro-Kote ltée,Duro-Kote ltée,3020 Le Corbusier,,LAVAL,QC,H7L3W2,Chemicals,WGS84,45.5842,-73.7533,NA,210
2021,254,Duro-Lak inc,Duro-Lak inc,,,Laval,QC,H7L 3W2,Chemicals,WGS84,45.5849,-73.7518,NA,210
2013,255,OMG Belleville Ltd.,OMG BELLEVILLE LIMITED,30 Dussek Street,,BELLEVILLE,ON,K8N5R8,Chemicals,WGS84,44.1806,-77.3692,ON-02HL-01,02HL
2004,256,DUSTBANE PRODUCTS,DUSTBANE PRODUCTS LTD - CHEMICAL DIVISION,25  PICKERING Place,,OTTAWA,ON,K1G5P4,Chemicals,WGS84,45.4179,-75.6503,ON-02LA-01,02LA
2021,257,Lavo,Lavo,,,Montréal,QC,H1C 2J3,Chemicals,WGS84,45.6572,-73.5398,NA,210
2001,259,Dutch Products Inc.,,44 CLAYSON ROAD,,WESTON,ON,M9M2G7,Chemicals,WGS84,43.7195,-79.5237,ON-02HC-02,02HC
2021,264,Ecolab Co.,Mississauga Plant,,,Mississauga,ON,L4W 2X5,Chemicals,WGS84,43.6285,-79.6344,ON-02HC-01,02HC
2021,267,Capital Power Generation Services Inc.,Genesee Thermal Generating Station,,,Warburg,AB,T0C 2T0,Electricity,WGS84,53.344,-114.305,AB-11020101,05DE
2005,269,EPCOR GENERATION,CLOVER BAR THERMAL GENERATING STATION,1515 - 130 Avenue,,EDMONTON,AB,T6S1E3,Electricity,WGS84,53.5873,-113.363,AB-11030101,05EB
2008,271,EMBALLAGES SMURFIT-STONE CANADA,USINE PONTIAC,211 route 301,,PORTAGE-DU-FORT,QC,J0X2T0,Pulp and Paper,WGS84,45.5917,-76.6625,ON-02KC-01,02KC
2000,274,Energetic Metals Incorporated,,3506 Eagle Street,,STEVENSVILLE (FORT ERIE),ON,L0S1S0,Aluminum,WGS84,42.9484,-79.047,ON-02HA-01,02HA
2021,276,ARCELORMITTAL WINDSOR A DIVISION OF ARCELORMITTAL DOFASCO G.P.,ARCELORMITTAL WINDSOR A DIVISION OF ARCELORMITTAL DOFASCO G.P.,,,Windsor,ON,N9C 0B7,Iron and Steel,WGS84,42.2605,-83.1002,ON-02GHA02,02GH
2021,279,"Kraft Nordic, s.e.c.","Kraft Nordic, s.e.c. - Usine de pâtes kraft de Lebel-sur-Quévillon",,,Lebel-sur-Quévillon,QC,J0Y 1X0,Pulp and Paper,WGS84,49.0254,-76.9538,NA,03AC
2021,280,Dow Chemical Canada ULC,Western Canada Operations,,,Fort Saskatchewan,AB,T8L 2P4,Chemicals,WGS84,53.7332,-113.175,AB-11030101,05EB
2021,281,3313045 NOVA SCOTIA COMPANY,Varennes Facility,,,Varennes,QC,J3X 1T3,Plastics and Rubber,WGS84,45.7317,-73.4033,NA,210
2009,282,DOW CHEMICAL CANADA ULC,DOW CHEMICAL CANADA ULC - WESTON,122  ARROW Road,,WESTON,ON,M9M2M2,Plastics and Rubber,WGS84,43.7447,-79.5297,ON-02HC-02,02HC
2011,284,Duochem Inc.,DUOCHEM - BOUCHERVILLE,1250 Graham Bell,,BOUCHERVILLE,QC,J4B6H5,Chemicals,WGS84,45.5641,-73.4406,NA,210
2021,286,Axalta Coating Systems Canada Company,Ajax Site,,,Ajax,ON,L1S 1R6,Chemicals,WGS84,43.8476,-79.0347,ON-02HC-08,02HC
2004,299,AKZO NOBEL,EKA CHEMICALS CANADA INC.,39 INDUSTRIAL STREET,,TORONTO,ON,M4G1Z2,Chemicals,WGS84,43.7079,-79.359,ON-02HC-06,02HC
2021,302, Nouryon Pâte et performance Canada inc.,Usine de Magog,,,Magog,QC,J1X 3W5,Chemicals,WGS84,45.2751,-72.1128,NA,02OE
2008,305,CHEMTURA CANADA,ANDEROL OAKVILLE,700 Third Line,,OAKVILLE,ON,L6J5A3,Chemicals,WGS84,43.4203,-79.7212,NA,02HB
2021,308,Kemira Water Solutions Canada Inc.,Kemira Water Solutions Canada Inc.,,,Varennes,QC,J3X 1T6,Chemicals,WGS84,45.711,-73.4228,NA,210
2010,311,ENDURA MANUFACTURING CO. LTD.,ENDURA MANUFACTURING,12425 149th Street,,EDMONTON,AB,T5L2J6,Chemicals,WGS84,53.5799,-113.5764,AB-11020201,05DF
1994,312,Equity Silver Mines Ltd.,,P.O. Box 1450,,HOUSTON,BC,V0J1Z0,Mining and Quarrying,WGS84,54.389,-126.6517,BC_18,08EE
2021,315,ESCO Limited,ESCO Limited,,,Port Hope,ON,L1A 3W4,Iron and Steel,WGS84,43.9483,-78.2847,NA,209
1997,316,ENTHONE-OMI (CANADA) INC,,58 ADESSO DRIVE,,CONCORD,ON,L4K3C6,Chemicals,WGS84,43.777,-79.5279,ON-02HC-02,02HC
2021,319,Dyno Nobel Canada Inc.,DNCI North Bay,,,North Bay,ON,P1B 8K2,Chemicals,WGS84,46.2667,-79.3778,ON-02DD-05,02DD
1997,321,EXACT PRINTING PLATE LIMITED,,1776 Midland Avenue,,SCARBOROUGH,ON,M1P3C2,Other Manufacturing,WGS84,43.7632,-79.2698,NA,02HC
2021,322,General Dynamics OTS- Canada Valleyfield Inc.,General Dynamic OTS-Canada Valleyfield Inc.,,,Salaberry-de-Valleyfield,QC,J6S 4V9,Chemicals,WGS84,45.2867,-74.0717,ON-02MCA01,02MC
1993,326,"FUJI HUNT PHOTOGRAPHIC CHEMICALS, LTD.",,,,,ON,,,WGS84,43.7125,-79.6606,NA,02HC
2021,327,Irving Consumer Products Limited,Irving Consumer Products Limited,,,Toronto,ON,M6M 4Y4,Pulp and Paper,WGS84,43.6944,-79.5059,ON-02HC-02,02HC
2008,330,FEROX INC.,USINE D'ANJOU,9100 Edison,,ANJOU,QC,H1J1T3,Chemicals,WGS84,45.6118,-73.5678,NA,210
2009,333,CATALYST PAPER,ELK FALLS,PO Box 2000,4405 North Island Hwy.,CAMPBELL RIVER,BC,V9W5C9,Pulp and Paper,WGS84,50.0738,-125.2833,BC_176,08HD
2012,341,Bacardi Canada Inc.,1000 Steeles Ave. East.,1000 Steeles Avenue East,,BRAMPTON,ON,L6T1A1,Other Manufacturing,WGS84,43.6879,-79.7093,ON-02HC-01,02HC
2021,344,Chemtrade Logistics Inc.,Chemtrade - Thorold,,,Thorold,ON,L2V 3Y7,Chemicals,WGS84,43.1101,-79.2092,ON-02HA-03,02HA
2021,351,Infinity Rubber Technology Group,Infinity Rubber - Welland Plant,,,Welland,ON,L3B 0B4,Plastics and Rubber,WGS84,42.9977,-79.2389,ON-02HA-02,02HA
2001,354,GENNUM CORPORATION,Landmark Building,3435 Landmark Road,,BURLINGTON,ON,L7M1T4,Other Manufacturing,WGS84,43.367,-79.7987,NA,02HB
2006,355,OXY VINYLS CANADA,SCOTFORD PLANT,55418 Range Road 214,,FORT SASKATCHEWAN,AB,T8L4A4,Chemicals,WGS84,53.776,-113.0886,AB-11030102,05EB
2021,358,"Glopak, Division of",USINE,,,Montreal,QC,H1R 1A6,Plastics and Rubber,WGS84,45.5883,-73.62,NA,210
2003,359,GOODFELLOW INC.,ST. ANDRE,"4, rue Du Moulin",C.P. 30,ST-ANDRÉ D'ARGENTEUIL,QC,J0V1X0,Wood Products,WGS84,45.5653,-74.3361,NA,02LC
2021,360,Goodfellow Inc.,"Goodfellow, DELSON",,,Delson,QC,J5B 1V5,Wood Products,WGS84,45.3651,-73.5366,NA,02OA
2001,361,Graham,,64 Maple Ave.  Box 3000,,INGLEWOOD,ON,L0N1K0,Plastics and Rubber,WGS84,43.7948,-79.9261,ON-02HB-06,02HB
2021,362,Greater Vancouver Sewerage and Drainage District,Metro Vancouver Waste-to-Energy Facility,,,Burnaby,BC,V3N 4V3,Waste Treatment and Disposal,WGS84,49.1866,-122.9785,BC_103,08MH
1997,363,Capital Regional District Water Dept,Japan Gulch Chloramination Plant,Sooke Lake Road,,VICTORIA,BC,V9B5T9,Water and Wastewater Systems,WGS84,48.4628,-123.5735,BC_243,08HA
1995,365,Humpback Chloramination Plant,,Humpback Road,,LANGFORD,BC,V9B1H7,Water and Wastewater Systems,WGS84,48.4664,-123.5846,BC_243,08HA
1997,367,Capital Regional District Water Dept.,Charters Creek Chloramination Plant,2895 Sooke River Road,,SOOKE,BC,V0S1N0,Water and Wastewater Systems,WGS84,48.4592,-123.5514,BC_243,08HA
2010,369,SONOCO FLEXIBLE PACKAGING CANADA CORP.,Sonoco Flexible Packaging Winnipeg,1664 SEEL AVENUE,,WINNIPEG,MB,R3T4X5,Other Manufacturing,WGS84,49.8394,-97.1758,NA,05OC
2018,371,Flexstar Packaging Inc.,FLEXSTAR Packaging Richmond Operations,13320 River Road,,RICHMOND,BC,V6V1W7,Other Manufacturing,WGS84,49.2004,-123.0772,BC_103,08MH
2012,373,Deane & Cie Inc.,Deane et Compagnie,190 Oneida Promenade,,POINTE-CLAIRE,QC,H9R1A8,Chemicals,WGS84,45.4749,-73.8113,NA,210
2021,374,Halltech Inc.,HALLTECH INC.,,,Scarborough,ON,M1E 2K2,Chemicals,WGS84,43.7644,-79.1697,NA,02HC
2021,375,Harbour Indusries (Canada) Ltd.,Harbour industrie Canada,,,Farnham,QC,J2N 2X3,Other Manufacturing,WGS84,45.2928,-72.9617,NA,02OG
2008,376,DANA CANADA INC.,LIGHT VEHICLE DRIVELINE (THOROLD MACHINING PLANT),P.O. Box 1045,,THOROLD,ON,L2V3Z6,Transportation Equipment Mfg.,WGS84,43.0922,-79.2061,ON-02HA-03,02HA
1993,377,H. B. FULLER CANADA INC.,,,,,QC,,,WGS84,45.5722,-73.4556,NA,210
2021,380,Filamat Composites Inc.,Rangeview Road Facility,,,Mississauga,ON,L5E 1G9,Chemicals,WGS84,43.5731,-79.5592,NA,209
2021,383,Helmitin Inc.,Toronto Plant,,,Toronto,ON,M8Z 5K7,Chemicals,WGS84,43.6253,-79.5419,NA,209
2012,384,Emery Oleochemicals Canada Ltd.,Toronto Plant,425 Kipling Avenue,,TORONTO,ON,M8Z5C8,Chemicals,WGS84,43.605,-79.52,NA,209
1998,389,Heritage Silversmiths Inc.,,1847 Rogers Road,,PERTH,ON,K7H1P8,Other Manufacturing,WGS84,44.8876,-76.2444,ON-02LA-06,02LA
2021,390,Héroux-Devtek Inc.,"Division Trains d'atterrissage, Longueuil",,,Longueuil,QC,J4H 3N2,Transportation Equipment Mfg.,WGS84,45.537,-73.4973,NA,210
2008,391,BASELL CANADA,VARENNES PLANT,3360 chemin de la Baronnie,,VARENNES,QC,J3X1T6,Plastics and Rubber,WGS84,45.6977,-73.4151,NA,210
2021,393,Home Hardware Stores Ltd.,Paint & Home Products Division,,,Burford,ON,N0E 1A0,Chemicals,WGS84,43.0967,-80.4311,ON-02GB-04,02GB
2014,394,BARRICK GOLD INC.,Nickel Plate Mine,612 Southern Transprovincial Highway Highway Southwest,,PENTICTON,BC,V2A6Y7,Mining and Quarrying,WGS84,49.3711,-120.0231,BC_184,08NL
2021,397,Honda Canada Inc.,Honda of Canada Mfg.,,,Alliston,ON,L9R 1A2,Transportation Equipment Mfg.,WGS84,44.1486,-79.8408,ON-02ED-11,02ED
2002,400,Dover Packaging Limited (formerly Howell Packaging Limited),,3230 Mainway Avenue,,BURLINGTON,ON,L7M1A5,Pulp and Paper,WGS84,43.364,-79.8051,NA,02HB
2021,403,Husky Oil Operations Limited,Lloydminster Refinery,,,Lloydminster,AB,T9V 0R7,Petroleum and Coal Product Refining and Mfg.,WGS84,53.2885,-110.0183,AB-11040302,05EF
2021,405,Tidewater Midstream and Infrastructure Ltd.,Prince George Refinery,,,Prince George,BC,V2K 5P5,Petroleum and Coal Product Refining and Mfg.,WGS84,53.9268,-122.7028,BC_197,08JC
2021,407,Tidewater Midstream and Infrastructure Ltd.,Ram River Sour Gas Plant,,,Rocky Mountain House,AB,T4T 1B5,Conventional Oil and Gas extraction,WGS84,52.1463,-115.33,AB-11010302,05DB
2021,409,Husky Oil Operations Limited,Lloydminster Upgrader,,,Lloydminster,SK,S9V 1M6,Conventional Oil and Gas extraction,WGS84,53.26311,-109.94889,NA,05EF
1993,417,ICI Autocolor,,,,,ON,,,WGS84,43.6992,-79.4611,ON-02HC-02,02HC
1998,420,ICI Canada inc,McMasterville Complex,801 blvd Richelieu,,MCMASTERVILLE,QC,J3G1T9,Chemicals,WGS84,45.571,-73.1984,NA,02OJ
1998,421,ICL Engineering Ltd.,,10111 River Drive,,RICHMOND,BC,V6X1Z2,Plastics and Rubber,WGS84,49.1981,-123.1096,BC_103,08MH
2018,422,Icynene Inc.,Manufacturing Facility,6747 Campobello Road,,MISSISSAUGA,ON,L5N2L7,Chemicals,WGS84,43.6269,-79.6647,ON-02HC-01,02HC
2021,423,The International Group Inc.,Agincourt Plant,,,Toronto,ON,M1S 2A8,Petroleum and Coal Product Refining and Mfg.,WGS84,43.7841,-79.2763,NA,02HC
2008,424,IMPERIAL OIL,BONNIE GLEN GAS PLANT,04-17-047-27 W4M,RR #2,THORSBY,AB,T0C2P0,,WGS84,53.0481,-113.921,AB-09010103,05FA
2021,426,Caledonian Midstream,Quirk Creek Gas Plant,,,Millarville,AB,T0L 1K0,Conventional Oil and Gas extraction,WGS84,50.7477,-114.4947,AB-04021202,05BL
2021,428,Imperial Oil Resources N.W.T. Limited,Norman Wells Central Processing Facility,,,Norman Wells,NT,X0E 0V0,Conventional Oil and Gas extraction,WGS84,65.2873,-126.8812,NA,10KA
2006,430,IMPERIAL OIL,LEDUC WOODBEND GAS CONSERVATION PLANT,02-28-049-11 W5M,P.O. Box 480,DEVON,AB,T0C1E0,,WGS84,53.3546,-113.715,AB-11020201,05DF
2021,432,Canadian Natural Resources Limited,Wapiti Deep Cut Plant 04-08-069-08 W6M,,,N/A,AB,,Conventional Oil and Gas extraction,WGS84,54.9527,-119.1953,AB-18020301,07GC
2009,434,IMPERIAL OIL,GOLDEN SPIKE GAS CONSERVATION PLANT,15-22-051-27 W4M,,DEVON,AB,T0C1E0,,WGS84,53.4213,-113.9044,AB-11020201,05DF
1995,436,Everdell Gas Plant,,LSD14-20-38-7W5M NA,P.O. Box 1419,ROCKY MOUNTAIN HOUSE,AB,T0M1T0,,WGS84,52.2865,-114.9708,AB-11010302,05DB
2021,438,Conifer Energy Inc.,Redwater Sour Gas Plant 01-29,,,Redwater,AB,,Conventional Oil and Gas extraction,WGS84,53.9527,-113.078,AB-11030202,05EC
2021,440,Conifer Energy Inc.,Judy Creek Gas Conservation Plant,,,Swan Hills,AB,,Conventional Oil and Gas extraction,WGS84,54.5723,-115.5229,AB-17010603,07AH
2021,442,Imperial Oil Resources Limited,Cold Lake,,,Grande Centre,AB,T0A 1T0,Non-Conventional Oil Extraction (including Oilsands and Heavy Oil),WGS84,54.59702,-110.39972,AB-12020103,06AC
2021,444,Vale Canada Limited,Copper Cliff Smelter,,,Copper Cliff,ON,P0M 1N0,Metals (Except Aluminum and Iron and Steel),WGS84,46.4786,-81.0553,ON-02CF-02,02CF
2021,447,Diageo Canada Inc.,Usine de Valleyfield,,,Salaberry-de-Valleyfield,QC,J6T 2G9,Other Manufacturing,WGS84,45.2561,-74.1197,ON-02MCA01,02MC
2008,448,DYNAMIC TIRE CORP.,"DYNAMIC TIRE CORP., SOLID TIRE DIVISION",3161  WHARTON Way North,,MISSISSAUGA,ON,L4X2B7,Plastics and Rubber,WGS84,43.6206,-79.5772,ON-02HC-01,02HC
2021,449,Ifastgroupe,INFASCO,,,Marieville,QC,J3M 1P6,Iron and Steel,WGS84,45.431,-73.1673,NA,02OJ
2021,452,PC Forge - IMT Partnership,FORGE DIVISION,,,Port Colborne,ON,L3K 5V7,Other Manufacturing,WGS84,42.8855,-79.2297,NA,207
2021,455,Ingot Metal Co. Ltd.,INGOT METAL COMPANY LIMITED,,,Weston,ON,M9L 1M3,Metals (Except Aluminum and Iron and Steel),WGS84,43.7595,-79.5488,ON-02HC-02,02HC
1997,456,MDS,Ingram & Bell,20 Bond Avenue,,DON MILLS,ON,M3B1L9,Other (Except Manufacturing),WGS84,43.744,-79.357,ON-02HC-06,02HC
2006,459,CELLIANCE CORPORATION,CELLIANCE TORONTO,55  GLEN SCARLETT Road,,TORONTO,ON,M6N1P5,Chemicals,WGS84,43.6742,-79.4758,ON-02HC-02,02HC
1993,461,Jamaica MFG(Canada) Co. Ltd.,,,,,ON,,,WGS84,44.7233,-75.5272,ON-02MCA06,02MC
2008,462,MARATHON PULP INC,MARATHON PULP - MARATHON,"1 Mill Road, Postal Bag MP",,MARATHON,ON,P0T2E0,Pulp and Paper,WGS84,48.7183,-86.395,NA,201
2021,464,Lebel Cambium Inc. - Bancroft,Bancroft Treating,,,Bancroft,ON,K0L 1C0,Wood Products,WGS84,45.0467,-77.8322,ON-02KD-03,02KD
2010,465,MINE JEFFREY,MINE JEFFREY,2 rue Du Carmel Street,,DANVILLE,QC,J0A1A0,Mining and Quarrying,WGS84,45.7733,-71.9532,NA,02OD
2021,466,John E. Goudey Mfg. Ltd.,John E. Goudey Mfg Limited,,,Toronto,ON,M6H 3V1,Chemicals,WGS84,43.6683,-79.4444,NA,209
2021,476,Kitchen Craft of Canada,Kitchen Craft of Canada,,,WINNIPEG,MB,R2G 4L6,Other Manufacturing,WGS84,49.9302,-97.0258,NA,05OJ
2021,477,Kleen-Flo Tumbler Industries Ltd.,KLEEN-FLO TUMBLER INDUSTRIES LTD.,,,Brampton,ON,L6T 4N1,Chemicals,WGS84,43.6967,-79.695,ON-02HC-01,02HC
2005,478,KODAK CANADA,KODAK CANADA INC.,3500  EGLINTON Avenue West,,TORONTO,ON,M6M1V3,Chemicals,WGS84,43.6904,-79.4856,ON-02HC-02,02HC
2021,479,Cariboo Pulp and Paper Company,Cariboo Pulp and Paper Company,,,Quesnel,BC,V2J 3J6,Pulp and Paper,WGS84,52.998,-122.483,BC_171,08KH
2021,485,Ingredion Canada Corporation,Ingredion Canada Incorporated - London Plant,,,London,ON,N6N 1E3,Other Manufacturing,WGS84,42.9217,-81.1942,ON-02GE-09,02GE
2021,488,Ingredion Canada Corporation,Ingredion Canada Corporation,,,Cardinal,ON,K0E 1E0,Other Manufacturing,WGS84,44.785,-75.3767,ON-02MCA06,02MC
2014,494,Methes Energies Canada Inc.,Methes Energies Canada Inc. -Sombra Plant,224 Holt Line West,,SOMBRA,ON,N0P2H0,Chemicals,WGS84,42.6941,-82.4833,ON-02GGA01,02GG
2021,495,City of Windsor,Lou Romano Water Reclamation Plant,,,Windsor,ON,N9C 4A5,Water and Wastewater Systems,WGS84,42.2833,-83.0864,ON-02GHA02,02GH
2005,500,COLGATE-PALMOLIVE CANADA,LEASIDE,99 Vanderhoof Ave.,,TORONTO,ON,M4G2H6,Chemicals,WGS84,43.712,-79.3612,ON-02HC-06,02HC
2018,502,Cleartech Industries Inc.,Edmonton 142 Street Plant,12020 142nd Street,,EDMONTON,AB,T5L2G8,Chemicals,WGS84,53.5726,-113.566,AB-11020201,05DF
2002,504,Colgate-Palmolive Canada Inc.,MONCTON,722 Edinburgh Drive,,MONCTON,NB,E1E4C2,Chemicals,WGS84,46.092,-64.8479,NA,01BU
1995,506,COLGATE PALMOLIVE MONTREAL CANADA INC,,"5555, RUE CYPIHOT",,ST LAURANT,QC,H4S1R3,Chemicals,WGS84,45.4992,-73.753,NA,210
2021,508,Kemira Chemicals Canada Inc.,KEMIRA CHEMCIALS CANADA INC. - DELTA,,,Delta,BC,V3M 5R4,Chemicals,WGS84,49.1706,-122.9372,BC_103,08MH
2008,511,O-I CANADA CORP.,PLANT #30 TORONTO,777 Kipling Avenue,,TORONTO,ON,M8Z5Z4,"Cement, Lime and Other Non-Metallic Minerals",WGS84,43.6297,-79.5303,NA,209
2008,514,O-I CANADA CORP.,PLANT #37 LAVINGTON,HILL DRIVE,,LAVINGTON,BC,V0E2B0,"Cement, Lime and Other Non-Metallic Minerals",WGS84,50.2299,-119.091,BC_161,08NM
2021,517,O-I Canada Corp.,Plant #31 Brampton,,,Brampton,ON,L6T 2J5,"Cement, Lime and Other Non-Metallic Minerals",WGS84,43.7043,-79.7275,ON-02HC-01,02HC
2008,520,O-I CANADA CORP.,PLANT #36 SCOUDOUC,225 Parker Road,,SCOUDOUC,NB,E4P3P7,"Cement, Lime and Other Non-Metallic Minerals",WGS84,46.1677,-64.5913,NA,01BT
1993,523,CONSUMERS GLASS (HAMILTON),,,,,ON,,,WGS84,43.2572,-79.8411,ON-02HB-01,02HB
2003,526,O-I CANADA CORP.,PLANT #33 MILTON,100 CHISHOLM DRIVE,,MILTON,ON,L9T3G9,"Cement, Lime and Other Non-Metallic Minerals",WGS84,43.5257,-79.9104,ON-02HB-03,02HB
1995,529,Les Industries COBOL Ltd,,9521 Côte de Liesse,,DORVAL,QC,H9P2N9,Chemicals,WGS84,45.4597,-73.7266,NA,210
2013,530,Spectra Premium Industries Inc.,SPI Heat Transfer Division,7029 Farrell Chemin,,CALGARY,AB,T2H0T3,Transportation Equipment Mfg.,WGS84,50.992,-114.059,AB-04020901,05BJ
2021,536,NuVista Energy Ltd.,Wembley Gas Plant,,,Wembley,AB,T0H 3S0,Conventional Oil and Gas extraction,WGS84,55.3359,-119.223,AB-18020503,07GE
2021,538,Crown Metal Packaging Canada LP,CROWN METAL PACKAGING CANADA LP - PLT. 245,,,Weston,ON,M9L 2Y9,Other Manufacturing,WGS84,43.7581,-79.5361,ON-02HC-02,02HC
2003,541,CROWN METAL PACKAGING CANADA LP,CROWN METAL PACKAGING CANADA LP - PLANT 246,5789 Cypihot,,ST. LAURENET,QC,H4S1R3,Other Manufacturing,WGS84,45.4975,-73.7551,NA,210
2008,544,CROWN METAL PACKAGING CANADA LP,CROWN METAL PACKAGING CANADA LP - PLANT 257,125 Irwin Street,,CHATHAM,ON,N7M5L3,Other Manufacturing,WGS84,42.3908,-82.2165,ON-02GE-01,02GE
2011,547,Crown Chemical Products Inc.,CROWN CHEMICAL PRODUCTS INC.,6125 NETHERHART ROAD,,MISSISSAUGA,ON,L5T1G5,Chemicals,WGS84,43.6622,-79.6417,ON-02HC-01,02HC
1993,548,Crown Cork & Seal Canada Inc.-Plt.250,,,,,MB,,,WGS84,49.8856,-97.0717,NA,05OH
2009,554,CROWN METAL PACKAGING CANADA LP,CROWNC METAL PACKAGING CANADA - PLANT 234 MONTREAL,10000 Meilleur Street,,MONTRÉAL,QC,H3L3J7,Other Manufacturing,WGS84,45.5402,-73.6658,NA,210
2021,557,Crown Metal Packaging Canada LP,CROWN METAL PACKAGING CANADA LP - Plant 235,,,Calgary,AB,T1X 1E1,Other Manufacturing,WGS84,50.9873,-113.971,AB-04020901,05BM
2006,563,"CURWOOD, INC",CURWOOD PACKAGING (CANADA) LIMITED,114 Armstrong Avenue,,GEORGETOWN,ON,L7G4S2,Plastics and Rubber,WGS84,43.6542,-79.8886,ON-02HB-05,02HB
2021,566,Acorn Packaging Inc.,Acorn Packaging Inc.,,,Mississauga,ON,L5A 3X6,Other Manufacturing,WGS84,43.5857,-79.5947,NA,209
1993,570,Dale technologies,,,,,ON,,,WGS84,42.5833,-82.3833,ON-02GGB02,02GG
2021,571,CpK Interior Products Inc.,CpK Interior Products - Port Hope Operations,,,Port Hope,ON,L1A 1C4,Transportation Equipment Mfg.,WGS84,43.9517,-78.2819,ON-029B-02,209
2007,574,MARK IV INDUSTRIES,DAYCO CANADA CORP,46 Norelco Drive,,WESTON,ON,M9L1S3,Plastics and Rubber,WGS84,43.7633,-79.5339,ON-02HC-02,02HC
2021,577,Dextran Products Ltd.,DEXTRAN PRODUCTS LIMITED,,,Toronto,ON,M1L 2H5,Chemicals,WGS84,43.7231,-79.2775,ON-02HC-06,02HC
1998,582,"RAISIO CHEMICALS CANADA, INC.",,2525 LEON-TREPANIER,INDUSTRIAL PARK #2,TROIS-RIVIERES,QC,G9A5E1,Chemicals,WGS84,46.3375,-72.5833,NA,02OC
1997,585,"RAISIO CHEMICALS CANADA, INC.",Diachem Industries Ltd.,11420 Blacksmith Pl,,RICHMOND,BC,V7A4X1,Chemicals,WGS84,49.1279,-123.0979,BC_103,08MH
1998,588,"RAISIO CHEMICALS CANADA, INC.",PAC PLANT,39501 GALBRAITH AVENUE,,SQUAMISH,BC,V0N3G0,Chemicals,WGS84,49.6914,-123.1596,BC_190,08GA
1998,591,DiverseyLever Canada,Mississauga,2645 Royal Windsor Dr.,,MISSISSAUGA,ON,L5J1L1,Chemicals,WGS84,43.5018,-79.6392,NA,209
2010,594,JOHNSONDIVERSEY CANADA INC.,Candiac,110 Boulevard Montcalm,,CANDIAC,QC,J5R3L9,Chemicals,WGS84,45.3945,-73.5183,NA,210
1996,597,DIVERSEYLEVER CANADA,VANCOUVER,640 BELGRAVE WAY,,NEW WESTMINISTER,BC,V3M5R7,Chemicals,WGS84,49.1801,-122.9339,BC_103,08MH
1999,600,DiverseyLever Canada,Winnipeg,1810 Dublin Ave.,,WINNIPEG,MB,R3H0H3,Chemicals,WGS84,49.9114,-97.2083,NA,05MJ
1995,603,DIVERSEY INC. DARTMOUTH,,43-47 MOSHER DRIVE,,DARTMOUTH,NS,B3B1E5,Chemicals,WGS84,44.7091,-63.6128,NA,01EJ
2017,606,ESCO Limited,ESCO - PORT COQUITLAM,1855 Avenue Kingsway,,PORT COQUITLAM,BC,V3C1T1,Iron and Steel,WGS84,49.2577,-122.7664,BC_103,08MH
2017,612,Hitachi Construction Truck Manufacturing Ltd.,Hitachi,200 Woodlawn Road West,,GUELPH,ON,N1H1B6,Other Manufacturing,WGS84,43.5561,-80.2917,ON-02GA-09,02GA
2021,618,Louisiana Pacific Canada Ltd.,Golden EWP Division,,,Golden,BC,V0A 1H1,Wood Products,WGS84,51.3138,-116.9804,BC_79,08NA
1996,621,Evans Forest Products Limited,Donald Mill,Box 170,,GOLDEN,BC,V0A1H0,Wood Products,WGS84,51.4898,-123.1761,BC_11,08MB
2021,626,Pfizer Canada ULC,Pfizer Global Supply Brandon,,,Brandon,MB,R7A 7H2,Chemicals,WGS84,49.8471,-99.9165,NA,05MH
2021,629,Boeing Canada Operations Ltd.,BOEING CANADA WINNIPEG,,,Winnipeg,MB,R3J 3M6,Transportation Equipment Mfg.,WGS84,49.8948,-97.2667,NA,05MJ
2018,632,Brimac Anodizing Ltd.,BRIMAC ANODIZING (1985) LIMITED,542 Kipling Avenue,,TORONTO,ON,M8Z5E3,Other Manufacturing,WGS84,43.6128,-79.5236,NA,209
2001,634,Canda Brick Ltd,"Canada Brick, Streetsville","2121 Britannia Rd. W.,",Streetsville,MISSISSAUGA,ON,L5M2C3,"Cement, Lime and Other Non-Metallic Minerals",WGS84,43.5882,-79.7265,ON-02HB-04,02HB
2021,635,Meridian Brick,Meridian Brick - Burlington,,,Burlington,ON,L7R 3Y2,"Cement, Lime and Other Non-Metallic Minerals",WGS84,43.4153,-79.8081,NA,02HB
2007,637,HANSON BRICK,"HANSON BRICK, OTTAWA",3130  RIDEAU Road,,GLOUCESTER,ON,K1G3N4,"Cement, Lime and Other Non-Metallic Minerals",WGS84,45.29668,-75.5757,ON-02LB-08,02LB
2017,639,Hanson Brick,"Hanson Brick, St Lawrence Plant",950 Godin Road,,LA PRAIRIE,QC,J5R3Y1,"Cement, Lime and Other Non-Metallic Minerals",WGS84,45.4062,-73.4942,NA,210
1994,640,"Estevan Brick Div, Canada Brick",,"4th Ave South,",,ESTEVAN,SK,S4A2A2,"Cement, Lime and Other Non-Metallic Minerals",WGS84,49.1417,-103.0014,NA,05NB
2006,642,THE CANADA METAL COMPANY LIMITED,TORONTO OXIDE PLANT,721 Eastern Ave.,,TORONTO,ON,M4M1E6,Chemicals,WGS84,43.6597,-79.3317,NA,209
2002,643,CHEMIRCO CHEMICALS,,940 LANSDOWNE AVENUE,BUILDING 28,TORONTO,ON,M6H3Z4,Chemicals,WGS84,43.6695,-79.4479,NA,209
2006,645,CANADIAN BLUE BIRD COACH,BRANTFORD,"22 Airport Rd, PO Box 880",,BRANTFORD,ON,N3T5R7,Transportation Equipment Mfg.,WGS84,43.1269,-80.3422,ON-02GB-03,02GB
1995,652,CFC/INX LTEE,,2045 BOUL. INDUSTRIEL,,LAVAL,QC,H7S1P7,Chemicals,WGS84,45.5783,-73.7281,NA,210
2014,653,MFC Energy Corporation,Mazeppa Sour Gas Plant,,,HIGH RIVER,AB,T1V1M7,,WGS84,50.6475,-113.772,AB-04010501,05AC
2021,656,"Durez Canada Company, Ltd.",Durez Canada Company Ltd.,,,Fort Erie,ON,L2A 4H9,Chemicals,WGS84,42.9247,-78.9303,ON-02HA-01,02HA
2021,658,Windsor Salt Ltd.,Belle Plaine Facility,,,Belle Plaine,SK,S0G 0G0,Other Manufacturing,WGS84,50.3954,-105.1562,NA,05JE
1993,661,"Canadian Turbo Inc., Lubrefinery",,,,,AB,,,WGS84,53.5947,-113.4254,AB-11030101,05EB
2008,664,MUELLER CANADA,CANVIL,390  2ND Avenue,,SIMCOE,ON,N3Y4K9,Iron and Steel,WGS84,42.8481,-80.3184,ON-02GC-02,02GC
1995,666,"Eagle Ottawa Canada, Ltd.",,125 McDonald Blvd.,,ACTON,ON,L7J2V7,Other Manufacturing,WGS84,43.6354,-80.0429,ON-02HB-05,02HB
1996,668,British Columbia Packers Ltd.,Steveston Plant,4300 Moncton Street,,RICHMOND,BC,V7E3A9,Other Manufacturing,WGS84,49.1383,-123.1642,BC_103,08MH
1996,671,Dynoplast a Division of Dyno Nobel Ltd,,11 Old Black River Road,P.O. Box 2087,SAINT JOHN,NB,E2L3T5,Plastics and Rubber,WGS84,45.2739,-66.0043,NA,01AP
2021,672,Mercer Celgar Limited Partnership,Mercer Celgar Limited Partnership,,,Castlegar,BC,V1N 3H9,Pulp and Paper,WGS84,49.3357,-117.728,BC_96,08NE
1999,675,Tiercon Industries Inc.,CCI Division,1317 Speers Rd.,,OAKVILLE,ON,L6L2X5,Other Manufacturing,WGS84,43.4268,-79.709,NA,02HB
1998,676,GOODYEAR CANADA,Production CentroPneus div Goodyear,885 Aubry,,ST-JEAN SUR RICHELIEU,QC,J3B7R4,Plastics and Rubber,WGS84,45.3093,-73.2882,NA,02OJ
2002,679,Chembond Limited,,2130 Williams Parkway,,BRAMPTON,ON,L6S5X7,Chemicals,WGS84,43.7493,-79.7156,ON-02HC-03,02HC
1996,680,Chevron Canada Resources,Bigoray Sour Gas Plant,10-07-051-09 W5M,,DRAYTON VALLEY,AB,T7A1S3,,WGS84,53.3887,-115.3169,AB-17030101,07BA
2021,683,Energy Transfer Canada,Kaybob South #3 Gas Plant,,,Fox Creek,AB,T0H 1P0,Conventional Oil and Gas extraction,WGS84,54.1944,-116.6322,AB-17010501,07AE
2017,686,Obsidian Energy Ltd.,Acheson Sour Gas Plant 05-02,,,,AB,,Conventional Oil and Gas extraction,WGS84,53.5468,-113.7348,AB-11020301,05EA
2021,689,Obsidian Energy Ltd.,Penn West Pembina 11-22-049-12W5,,,N/A,AB,,Conventional Oil and Gas extraction,WGS84,53.245,-115.6743,AB-17030102,07BA
1996,692,Chevron Canada Resources,Medicine Lodge Sour Gas Plant,09-09-052-21 W5M,,EDSON,AB,T7E1V4,,WGS84,53.4759,-117.0365,AB-17020101,07AF
2006,695,PENN WEST PETROLEUM,MITSUE GAS PLANT 14-30-072-04W5,NE1/4-30-072-04 W5M,,SLAVE LAKE,AB,T0G2A0,,WGS84,55.3583,-114.6172,AB-17040301,07BK
2021,698,Keyera Corp,Fort Saskatchewan Plant,,,Fort Saskatchewan,AB,T8L 2T2,Conventional Oil and Gas extraction,WGS84,53.7469,-113.1645,AB-11030101,05EB
2021,701,Kubota Materials Canada Corporation,Kubota Materials Canada Corporation,,,Orillia,ON,L3V 6L6,Iron and Steel,WGS84,44.6259,-79.4326,ON-02ED-03,02ED
2021,702,Lafarge Canada Inc.,Richmond Cement Plant,,,Richmond,BC,V6W 1H4,"Cement, Lime and Other Non-Metallic Minerals",WGS84,49.1591,-123.0032,BC_103,08MH
2021,705,Lallemand Inc.,USINE MONTREAL,,,Montréal,QC,H1W 2N8,Other Manufacturing,WGS84,45.5389,-73.5447,NA,210
1993,706,LAMBTON AREA WATER SUPPLY SYSTEM,,,,,ON,,,WGS84,42.9706,-82.4081,ON-02GGA01,02GG
2002,708,LEAR CORPORATION CANADA,Ajax Plant,660 MONARCH AVENUE,,AJAX,ON,L1S2G9,Other Manufacturing,WGS84,43.8339,-79.021,NA,209
2002,711,FLINT INK NORTH AMERICA CORPORATION,FLINT INK - TORONTO,511 MILLWAY AVENUE,,CONCORD,ON,L4K3V4,Other Manufacturing,WGS84,43.8007,-79.5284,ON-02HC-02,02HC
1999,715,L&M Screw Machine Products Limited,,130 Milvan Drive,,NORTH YORK,ON,M9L1Z9,Other Manufacturing,WGS84,43.7579,-79.5642,ON-02HC-02,02HC
2020,716,Locweld Inc.,LOCWELD - CANDIAC,50 Iberville Street,,CANDIAC,QC,J5R 1J5,Other Manufacturing,WGS84,45.3968,-73.5247,NA,210
2021,717,Dana Canada Corporation,Dana Cambridge,,,Cambridge,ON,N1R 8G8,Transportation Equipment Mfg.,WGS84,43.3645,-80.2916,ON-02GA-01,02GA
2021,718,Louisiana Pacific Canada Ltd.,LP Dawson Creek,,,Dawson Creek,BC,V1G 4P2,Wood Products,WGS84,55.7814,-120.2753,BC_117,07FD
2021,721,Macco Organiques Inc.,Usine de Valleyfield,,,Valleyfield,QC,J6S 4M5,Chemicals,WGS84,45.2624,-74.1039,ON-02MCA01,02MC
2021,722,2121865 Ontario Ltd.,Mac Coatings,,,Windsor,ON,N8Y 2N7,Chemicals,WGS84,42.3175,-83.0043,ON-02GHA02,02GH
2021,723,Catalyst Paper Corporation,Powell River Division,,,Powell River,BC,V8A 4R3,Pulp and Paper,WGS84,49.8727,-124.5516,BC_73,08GB
2003,725,MACTAC CANADA LTD/LTEE,BRAMPTION FACILITY,100 Kennedy Road South,,BRAMPTON,ON,L6W3E8,Other Manufacturing,WGS84,43.6876,-79.7381,ON-02HC-01,02HC
2021,728,Mancuso Chemicals Limited,NIAGARA FALLS,,,Niagara Falls,ON,L2E 6X8,Chemicals,WGS84,43.0552,-79.088,ON-02HA-02,02HA
2021,729,Mapei Inc.,MAPEI Inc.,,,Laval,QC,H7L 3J5,Chemicals,WGS84,45.5908,-73.7358,NA,210
2021,732,Metalex Products Ltd.,METALEX PRODUCTS - RICHMOND,,,Richmond,BC,V6X 2S8,Other Manufacturing,WGS84,49.1941,-123.092,BC_103,08MH
1999,733,Paintplas Inc.,650 FINLEY AVE.,650 Finley Ave.,,AJAX,ON,L1S6N1,Other Manufacturing,WGS84,43.832,-79.0267,NA,209
1996,734,Mitsubishi Electronics Industries Canada Inc.,Midland,1000 Wye Valley Road,,MIDLAND,ON,L4R4L8,Other Manufacturing,WGS84,44.734,-79.8517,ON-02ED-02,02ED
2013,735,ExxonMobil Chemical Films Canada Ltd.,ExxonMobil Chemical Films Canada Ltd.,321 University Avenue,,BELLEVILLE,ON,K8N5A2,Plastics and Rubber,WGS84,44.2,-77.3678,ON-02HL-01,02HL
2021,738,Pro Form Products Ltd.,Pro Form Products Ltd.,,,Milton,ON,,Chemicals,WGS84,43.5301,-79.8898,ON-02HB-03,02HB
2021,741,Morbern Inc.,Morbern Inc.,,,Cornwall,ON,K6H 5V3,Other Manufacturing,WGS84,45.033,-74.6684,ON-02MCA03,02MC
2007,742,NATIONAL RUBBER TECHNOLOGIES CORP.,SYMINGTON PLANT,394 SYMINGTON AVENUE,,TORONTO,ON,M6N2W3,Plastics and Rubber,WGS84,43.6675,-79.4522,NA,209
2021,743,National Rubber Technologies Corp.,Cawthra Plant,,,Toronto,ON,M6N 5B3,Plastics and Rubber,WGS84,43.6687,-79.4637,ON-02HC-02,209
2021,744,DEPARTMENT OF NATIONAL DEFENCE,8 Wing Trenton Environmental Management,,,Astra,ON,K0K 3W0,Other (Except Manufacturing),WGS84,44.1119,-77.5317,ON-029C-02,209
2021,745,DEPARTMENT OF NATIONAL DEFENCE,14 Wing Greenwood,,,Greenwood,NS,B0P 1N0,Other (Except Manufacturing),WGS84,44.9834,-64.9142,NA,01DC
2021,746,DEPARTMENT OF NATIONAL DEFENCE,5 Wing Goose Bay,,,Goose Bay,NL,A0P 1S0,Other (Except Manufacturing),WGS84,53.3149,-60.4175,NA,03PC
2009,747,STATOILHYDRO,STATOILHYDRO CANADA LTD,7000 boul. Raoul-Duchesne,,BÉCANCOUR,QC,G9H2V3,Metals (Except Aluminum and Iron and Steel),WGS84,46.3714,-72.402,NA,210
2021,748,NCH Corp.,NCH Canada Inc,,,Brampton,ON,L6T 1E6,Chemicals,WGS84,43.6969,-79.7212,ON-02HC-01,02HC
1996,750,Niagara Paint INC.,Niagara Paint,2 Hillyard St.,"Box 402, L.C.D. #1",HAMILTON,ON,L8L7W4,Chemicals,WGS84,43.2632,-79.8412,ON-02HB-01,02HB
2008,751,CLOVERDALE PAINT,NORTHERN PAINT,394 GERTRUDE AVENUE,,WINNIPEG,MB,R3L0M6,Chemicals,WGS84,49.8766,-97.1406,NA,05OC
2007,752,NOVA CHEMICALS,USINE DE MONTRÉAL,"11625 est, rue Sherbrooke",,MONTRÉAL,QC,H1B5L9,Chemicals,WGS84,45.6389,-73.5133,NA,210
1996,755,NUTRIBEC LTEE,NUTRIBEC MTL,"2950, rue Ontario Est",,MONTREAL,QC,H2K1X3,Other (Except Manufacturing),WGS84,45.5361,-73.5528,NA,210
2021,757,Ostrem Chemical Co. Ltd.,Ostrem Chemical Co. Ltd.,,,Edmonton,AB,T6P 1N2,Chemicals,WGS84,53.5164,-113.3781,AB-11030101,05EB
2021,758,Uniboard Canada Inc,"Uniboard Canada inc, usine Mont-Laurier",,,Mont-Laurier,QC,J9L 3W3,Wood Products,WGS84,46.555,-75.4756,NA,02LE
2021,762,PPG Phillips Industrial Coatings Inc,PPG PHILLIPS INDUSTRIAL COATINGS - WINNIPEG,,,Winnipeg,MB,R2J 3V9,Chemicals,WGS84,49.8811,-97.0389,NA,05OH
2021,764,Plasti-Fab Ltd.,Plasti-Fab Polymer Plant & Plasti-Fab Crossfield,,,Crossfield,AB,T0M 0S0,Plastics and Rubber,WGS84,51.4191,-114.027,AB-04020803,05BH
2021,765,Axiall Canada Inc.,Axiall Canada Inc.,,,Beauharnois,QC,J6N 1W5,Chemicals,WGS84,45.309,-73.894,ON-02MCA01,210
2021,767,Linde Canada Inc.,Prentiss Air Separation Plant,,,Prentiss,AB,T4L 2N1,Chemicals,WGS84,52.3869,-113.6001,AB-08020101,05CD
2021,770,City of Ottawa,Robert O. Pickard Environmental Centre,,,Ottawa,ON,K1J 1A6,Water and Wastewater Systems,WGS84,45.4606,-75.5908,ON-02LB-03,02LA
2021,773,Cables PTI Cables Inc.,CABLES PTI CABLES - POINTE  CLAIRE,,,Pointe-Claire,QC,H9R 1E2,Other Manufacturing,WGS84,45.4704,-73.8021,NA,210
2016,775,Produits forestiers Résolu,Thorold Division,2 Allanburg Road,,THOROLD,ON,L2V3Z5,Pulp and Paper,WGS84,43.1063,-79.1998,ON-02HA-03,02HA
2005,776,RECKITT BENCKISER (CANADA) INC.,RECKITT BENCKISER (CANADA) INC.,2  WICKMAN ROAD,,TORONTO,ON,M8Z5M5,Chemicals,WGS84,43.6151,-79.5296,NA,209
2009,778,RECOCHEM,BRAMPTON,131 East Drive,,BRAMPTON,ON,L6T1B5,Other Manufacturing,WGS84,43.7103,-79.6912,NA,02HC
2021,781,Recochem Inc.,ST LAURENT,,,St-Laurent,QC,H4T 1P4,Other Manufacturing,WGS84,45.483,-73.7142,NA,210
2021,784,Recochem Inc.,PORT COQUITLAM,,,Port Coquitlam,BC,V3C 4P2,Other Manufacturing,WGS84,49.2525,-122.762,BC_103,08MH
2021,787,Napierville Refineries Inc.,Napierville,,,Napierville,QC,J0J 1L0,Chemicals,WGS84,45.25,-73.4167,NA,02OJ
2021,790,Recochem Inc.,NISKU,,,Nisku,AB,T0C 2G0,Other Manufacturing,WGS84,53.3436,-113.5269,AB-11020203,05DF
2018,793,Reichhold Ltd.,Port Moody Plant,50 Douglas Street,,PORT MOODY,BC,V3H3L9,Chemicals,WGS84,49.2786,-122.864,BC_190,08GA
2007,796,RSM RICHTER - SYNDIC FAILLITE DE ALERIS CANADA S.E.C.,ALERIS S.E.C. - TROIS-RIVIÈRES,290 St-Laurent,,TROIS-RIVIÈRES,QC,G8T7W9,Aluminum,WGS84,46.3697,-72.5194,NA,210
2004,798,RELIANCE FOUNDRY CO. LTD,RELIANCE FOUNDRY - SURREY,7764 - 129A Street,,SURREY,BC,V3W4H7,Iron and Steel,WGS84,49.143,-122.8627,BC_103,08MH
2021,799,Scapa North America ULC,SCAPA NORTH AMERICA,,,Renfrew,ON,K7V 3Z4,Chemicals,WGS84,45.4692,-76.6606,ON-02KC-04,02KC
2021,800,Siltech Corporation,Mississauga Plant,,,Mississauga,ON,L5C 1V8,Chemicals,WGS84,43.5689,-79.6447,ON-02HB-04,02HB
2002,801,CLARIANT (CANADA) INC. MASTERBATCHES DIVISION,MISSISSAUGA,5226 Timberlea Blvd,,MISSISSAUGA,ON,L4W2S5,Plastics and Rubber,WGS84,43.6276,-79.6387,ON-02HC-01,02HC
2006,804,RIEGER FLEXO AND GRAVURE,RIEGER FLEXO AND GRAVURE,84  MARTIN ROSS Avenue,,DOWNSVIEW,ON,M3J2L4,Other Manufacturing,WGS84,43.7736,-79.4758,ON-02HC-06,02HC
2019,805,MSSC Canada,MSSC Canada,201 Park Avenue,,CHATHAM,ON,N7M3V7,Transportation Equipment Mfg.,WGS84,42.4006,-82.1739,ON-02GE-01,02GE
2021,806,Evonik Oil Additives Canada Inc.,Morrisburg Plant,,,Morrisburg,ON,K0C 1X0,Chemicals,WGS84,44.9136,-75.1583,ON-02MCA04,02MC
2000,809,Toledo Technologies,Sandco Automotive Components Group,1064 Hwy. #6 N.,,HAMILTON,ON,L8N2Z7,Other Manufacturing,WGS84,43.3502,-79.9696,ON-02HB-01,02HB
1998,810,Samuel Bingham Co.,,52 Advance Rd.,,TORONTO,ON,M8Z2T7,Plastics and Rubber,WGS84,43.6343,-79.5273,NA,02HC
2021,813,Sani-Marc Inc,SANI-MARC INC.,,,Victoriaville,QC,G6P 7E3,Chemicals,WGS84,46.0745,-71.9575,NA,02OD
2021,814,Schwartz Chemical Corp.,SCHWARTZ CHEMICAL COROPORATION,,,Pickering,ON,L1W 3A3,Chemicals,WGS84,43.8199,-79.0578,NA,209
2020,815,Northern Pulp Nova Scotia Corporation,Northern Pulp Nova Scotia Corporation,260 Abercrombie Branch Road,,ABERCROMBIE,NS,B2H 5C6,Pulp and Paper,WGS84,45.65243,-62.71653,NA,01DP
2021,818,SFL Canusa Canada Ltd.,SFL Canusa Huntsville,,,Huntsville,ON,P1H 1Y7,Plastics and Rubber,WGS84,45.3173,-79.245,ON-02EB-08,02EB
1994,819,Marson Canada Inc.,,7 Ingram Drive,,TORONTO,ON,M6M2L8,Chemicals,WGS84,43.6995,-79.4751,ON-02HC-02,02HC
2021,821,Manitoba Hydro,Brandon Generating Station,,,Brandon,MB,R7A 7J8,Electricity,WGS84,49.8449,-99.8901,NA,05MH
2018,823,Manitoba Hydro,Selkirk Generating Station,9527 Henderson Highway,,SELKIRK,MB,R1A2B3,Electricity,WGS84,50.1338,-96.8522,NA,05OJ
2010,848,LETHBRIDGE IRON WORKS CO. LTD.,LETHBRIDGE IRON WORKS - LETHBRIDGE,720 32nd Street,,LETHBRIDGE,AB,T1H5K5,Iron and Steel,WGS84,49.71035,-112.793934,AB-04010601,05AG
2021,851,C.P. Loewen Enterprises Ltd.,Loewen,,,Steinbach,MB,R5G 1B2,Wood Products,WGS84,49.5324,-96.6896,NA,05OE
2021,853,Chemtrade Logistics Inc.,Chemtrade - Fort Saskatchewan CSC,,,Fort Saskatchewan,AB,T8L 2T2,Chemicals,WGS84,53.7185,-113.183,AB-11030101,05EB
1999,854,MARSULEX Inc.,Customer Service Centre,1690 Marie Victorin,,TRACY,QC,J3P5S8,Other (Except Manufacturing),WGS84,45.7669,-73.3561,NA,210
2019,855,Chemtrade Logistics Inc.,Chemtrade - Niagara Falls CSC,6300 OldField Road,,NIAGARA FALLS,ON,L2G3J8,Chemicals,WGS84,43.0633,-79.1003,ON-02HA-01,02HA
1993,856,FERROTEC FINISHING DIVISION,,,,,ON,,,WGS84,42.3139,-82.9094,ON-02GHA02,02GH
2002,859,McAsphalt Industries Limited,WEST HILL,8760 Sheppard Ave East,,TORONTO,ON,M1B5R4,Petroleum and Coal Product Refining and Mfg.,WGS84,43.8051,-79.1909,ON-02HC-07,02HC
2005,862,BOEING TORONTO LTD.,BOEING TORONTO LTD.,6972  AIRPORT Road,P.O. Box 6013,TORONTO,ON,L5P1B7,Transportation Equipment Mfg.,WGS84,43.6984,-79.6387,ON-02HC-01,02HC
1996,864,MEAD JOHNSON CANADA,,231 DUNDAS ST EAST,,BELLEVILLE,ON,K8N5C2,Other Manufacturing,WGS84,44.1632,-77.3675,ON-029C-02,209
2005,867,MERCK FROSST CANADA,MERCK FROSST CANADA - KIRKLAND,16711 Trans Canada Hwy.,,KIRKLAND,QC,H9H3L1,Chemicals,WGS84,45.4577,-73.8449,NA,210
2001,870,Q3 Aluminum Technologies Inc.,Cornwall Plant,Civic No. 16225 County Road No. 2,RR # 1,LONG-SAULT,ON,K0C1P0,Transportation Equipment Mfg.,WGS84,45.0764,-74.7647,ON-02MCA06,02MC
2017,872,LNG Canada Development Inc,Kitimat Marine Terminal,Ocelot Road,,KITIMAT,BC,V8C2G7,Chemicals,WGS84,54.0293,-128.687,BC_85,08FF
2021,875,Meadow Lake Mechanical Pulp,Meadow Lake Mechanical Pulp,,,Meadow Lake,SK,S9X 1V7,Pulp and Paper,WGS84,54.156864,-108.285728,NA,06AD
2021,878,Millar Western Forest Products Ltd.,Whitecourt Pulp Division,,,Whitecourt,AB,T7S 1N9,Pulp and Paper,WGS84,54.1444,-115.6917,AB-17010602,07AG
2002,879,Barrick Gold Corporation,COMPLEXE BOUSQUET- DIVISION EST-MALARTIC,Route 117,,MALARTIC,QC,J0Y1Z0,Mining and Quarrying,WGS84,48.1292,-78.096,ON-04NA-05,04NA
1994,882,Division Terrains Aurifères,,Route 117,,MALARTIC,QC,J0Y2E0,Mining and Quarrying,WGS84,48.1333,-78.1042,ON-04NA-05,04NA
1994,885,Bousquet No. 2,,2 Chemin Bousquet,Route 395,PREISSAC,QC,J0Y2E0,Mining and Quarrying,WGS84,48.4083,-78.3625,NA,02JB
1994,888,Bousquet No. 1,,2 Chemin Bousquet,Route 395,PREISSAC,QC,J0Y2E0,Mining and Quarrying,WGS84,48.4083,-78.3625,NA,02JB
1993,908,SAMUEL BINGHAM COMPANY,,,,,ON,,,WGS84,43.6333,-79.5247,NA,02HC
2015,917,Resolute FP Canada Inc.,Fort Frances Division,427 Mowat Avenue,,FORT FRANCES,ON,P9A1Y8,Pulp and Paper,WGS84,48.6111,-93.4034,ON-05PCD02,05PC
1999,918,"Bay Mills Limited, Brampton Division",,6 Holtby Avenue,,BRAMPTON,ON,L6X2M1,Other Manufacturing,WGS84,43.6832,-79.7801,ON-02HB-04,02HB
2021,921,Bartek Ingredients Inc.,Plant #2,,,Stoney Creek,ON,L8E 3J4,Chemicals,WGS84,43.2322,-79.7167,NA,209
1997,927,Avenor Inc.,Gold River Operations,Mill Road,,GOLD RIVER,BC,V0P1G0,Pulp and Paper,WGS84,49.6872,-126.115,BC_59,08HE
2021,928,Domtar Inc.,Dryden Mill,,,Dryden,ON,P8N 2Z7,Pulp and Paper,WGS84,49.7831,-92.8472,ON-05QD-04,05QD
2021,929,Produits forestiers Résolu,Usine de Gatineau,,,Gatineau,QC,J8P 4X6,Pulp and Paper,WGS84,45.4808,-75.6556,ON-02LB-03,02LA
2021,930,Produits forestiers Résolu,Resolute Forest Products - Thunder Bay Operations,,,Thunder Bay,ON,P7E 6S3,Pulp and Paper,WGS84,48.3486,-89.3067,ON-02AB-03,02AB
2021,931,Ampacet Canada Co.,Ampacet Canada Co.,,,Kitchener,ON,N2C 2G8,Plastics and Rubber,WGS84,43.4061,-80.4531,ON-02GA-02,02GA
2001,932,"PolyOne Elastomers Canada, Inc.",Tillsonburg Facility,10 Clearview Drive,,TILLSONBURG,ON,N4G4H3,Chemicals,WGS84,42.8411,-80.743,ON-02GC-06,02GC
2021,935,Bombardier Produits Récréatifs Inc.,Complexe A,,,Valcourt,QC,J0E 2L0,Transportation Equipment Mfg.,WGS84,45.4917,-72.3083,NA,02OG
2003,938,BOEHME FILATEX CANADA INC,,178 rue St-Pierre,,ST-JEAN-SUR-RICHELIEU,QC,J3B5W4,Chemicals,WGS84,45.3051,-73.262,NA,02OJ
2021,941,Lantic Inc. - Vancouver Refinery,Lantic Inc. - Vancouver Refinery,,,Vancouver,BC,V6A 3N2,Other Manufacturing,WGS84,49.2841,-123.0802,BC_190,08GA
1996,944,ROGERS SUGAR LTD,Wininipeg Sugar Factory,555 HERVO SREET,,WINNIPEG,MB,R3T3L6,Other Manufacturing,WGS84,49.8277,-97.1583,NA,05OC
2021,947,Lantic Inc. Taber Factory,Lantic Inc. Taber Beet Sugar Factory,,,Taber,AB,T1G 2C4,Other Manufacturing,WGS84,49.7894,-112.1261,AB-04010601,05AG
1996,950,Alcatel Canada Inc.,Leaside Plant,22 Commercial Road,,TORONTO,ON,M4G3W1,Other Manufacturing,WGS84,43.709,-79.3609,ON-02HC-06,02HC
2021,953,Essex Furukawa Magnet Wire Canada Inc.,Essex Group Canada Inc.,,,Simcoe,ON,N3Y 4L5,Metals (Except Aluminum and Iron and Steel),WGS84,42.8503,-80.3025,ON-02GC-02,02GC
2019,1428,SWISSPORT CANADA INC.,Calgary,Suite 810 - 1601 Airport Road,,CALGARY,AB,T2E 8W3,Other (Except Manufacturing),WGS84,51.1231,-114.0086,AB-04020803,05BH
2009,1429,SERVISAIR INC.,VANCOUVER INTERNATIONAL AIRPORT,Room 4173 - Level 4,,RICHMOND,BC,V7B1T6,Other (Except Manufacturing),WGS84,49.1803,-123.1605,BC_103,08MH
2021,1433,Surteco Canada Ltd.,Surteco Canada Ltd.,,,Brampton,ON,L6T 1E9,Plastics and Rubber,WGS84,43.6982,-79.7267,ON-02HC-01,02HC
2021,1436,Mayflower Properties (Guelph) Inc.,Victoria Road Terminal,,,Guelph,ON,N1E 5R1,Other (Except Manufacturing),WGS84,43.5509,-80.2202,ON-02GA-16,02GA
2021,1439,Husky Oil Operations Limited,Rainbow Lake Gas plant,,,Rainbow Lake,AB,T0H 2Y0,Conventional Oil and Gas extraction,WGS84,58.5,-119.4167,AB-19010102,07OA
1993,1440,Hussmann Store Equipment Ltd.,,,,,ON,,,WGS84,43.1436,-80.2967,ON-02GB-03,02GB
2011,1443,Hydro-Québec,Centrale de Tracy,12125 Boulevard Marie-Victorin,,TRACY,QC,J3P5N3,Electricity,WGS84,45.9972,-73.1722,NA,210
2014,1445,Hydro-Québec,Centrale nucléaire Gentilly II,4900 Bécancour Boulevard,,BÉCANCOUR,QC,G9H3X3,Electricity,WGS84,46.3944,-72.3542,NA,210
2021,1447,IBM Canada,"IBM Canada Ltée, Bromont",,,Bromont,QC,J2L 1A3,Other Manufacturing,WGS84,45.2963,-72.7204,NA,02OG
2008,1449,PCI CHEMICALS CANADA CO. D/B/A OLIN CHLOR ALKALI,PCI CHEMICALS CANADA CO. DALHOUSIE WORKS,600 Queen Street,,DALHOUSIE,NB,E8C2G6,Chemicals,WGS84,48.0671,-66.4033,NA,01BF
2021,1458,PPG Architectural Coatings Canada Inc.,Vaughan Plant,,,Concord,ON,L4K 2A5,Chemicals,WGS84,43.8105,-79.502,ON-02HC-06,02HC
2021,1461,GKN Sinter Metals - St Thomas Ltd.,same,,,St. Thomas,ON,N5P 1H1,Transportation Equipment Mfg.,WGS84,42.7806,-81.1611,ON-02GC-09,02GC
2021,1464,Imperial Oil,Sarnia Chemical Plant,,,Sarnia,ON,N7T 7M5,Chemicals,WGS84,42.9544,-82.4153,ON-02GGA01,02GG
2021,1465,Vale Canada Limited,Clarabelle Mill,,,Copper Cliff,ON,P0M 1N0,Mining and Quarrying,WGS84,46.495,-81.0561,ON-02CF-02,02CF
2021,1467,Vale Canada Limited,Copper Cliff Nickel Refinery,,,Copper Cliff,ON,P0M 1N0,Metals (Except Aluminum and Iron and Steel),WGS84,46.4452,-81.0846,ON-02CF-02,02CF
2006,1469,VALE CANADA LIMITED,COPPER CLIFF COPPER REFINERY (DECOMISSIONED),487 Power Street,,COPPER CLIFF,ON,P0M1N0,Metals (Except Aluminum and Iron and Steel),WGS84,46.4606,-81.0756,ON-02CF-02,02CF
2021,1471,Vale Canada Limited,Port Colborne Refinery,,,Port Colborne,ON,L3K 5W2,Metals (Except Aluminum and Iron and Steel),WGS84,42.8826,-79.2405,NA,207
2021,1473,Vale Canada Limited,Thompson Operations,,,Thompson,MB,R8N 1P3,Mining and Quarrying,WGS84,55.7138,-97.8561,NA,05TD
2021,1480,"Hydro Extrusion Canada, Inc.",North York Division,,,Toronto,ON,M9M 3A2,Aluminum,WGS84,43.736,-79.532,ON-02HC-02,02HC
2021,1482,"Hydro Extrusion Canada, Inc.",Hydro Extrusion - Montreal,,,Pointe-Claire,QC,H9R 5W3,Other Manufacturing,WGS84,45.468,-73.7963,NA,210
2021,1484,Stella-Jones Inc.,Usine de Tracy,,,Tracy,QC,J3R 3L2,Wood Products,WGS84,46.0287,-73.1346,NA,02OJ
2021,1485,Cloverdale Paint Inc. - Oakville,Cloverdale Paint Inc.,,,Oakville,ON,L6L 2X5,Chemicals,WGS84,43.4266,-79.7096,NA,02HB
2020,1486,Mackenzie Pulp Mill Corporation,Mackenzie Pulp Mill,1000 Coquawaldie Road,,MACKENZIE,BC,V0J 2C0,Pulp and Paper,WGS84,55.2914,-123.1592,BC_164,07EE
2021,956,Nexans Canada Inc.,Fergus Plant,,,Fergus,ON,N1M 2W9,Other Manufacturing,WGS84,43.7139,-80.3793,ON-02GA-04,02GA
2021,959,Nexans Canada Inc.,Usine de coulée continue de Montréal-Est,,,Montréal-Est,QC,H1B 5H6,Metals (Except Aluminum and Iron and Steel),WGS84,45.6291,-73.5132,NA,210
1999,962,Alcatel Canada Wire,Hochelaga Plant,9259 Rue Hochelaga,,MONTREAL,QC,H4L2P4,Other Manufacturing,WGS84,45.6071,-73.5162,NA,210
2008,965,NEXANS CANADA INC,QUEBEC CITY FACILITY,1081 Boul Pierre Bertrand,,VILLE VANIER,QC,G1M2E8,Other Manufacturing,WGS84,46.775,-71.2583,NA,210
2001,968,SUPERIOR CABLE CORPORATION,Winnipeg Plant,1397 Buffalo Place,,WINNIPEG,MB,R3T1L6,Metals (Except Aluminum and Iron and Steel),WGS84,49.8377,-97.1677,NA,05OC
2021,971,Nexans Canada Inc.,Weyburn Facility,,,Weyburn,SK,S4H 0B8,Other Manufacturing,WGS84,49.6606,-103.831,NA,05NB
2014,978,AbibowCanada Inc.,Iroquois Falls Division,1 Park Street,,IROQUOIS FALLS,ON,P0K1E0,Pulp and Paper,WGS84,48.7644,-80.6708,ON-04MC-03,04MC
2021,979,Produits forestiers Résolu,Usine Kénogami,,,Saguenay,QC,G7X 1M1,Pulp and Paper,WGS84,48.4289,-71.2437,NA,02RH
2007,981,ABITIBI CONSOLIDATED COMPANY OF CANADA,FORT WILLIAM DIVISION,1735  CITY Road,,THUNDER BAY,ON,P7B6T7,Pulp and Paper,WGS84,48.3483,-89.225,NA,02AA
2021,983,Produits forestiers Résolu,Division Alma,,,Alma,QC,G8B 5W2,Pulp and Paper,WGS84,48.565,-71.6558,NA,02RG
2009,987,ABITIBI CONSOLIDATED DU CANADA,"LA COMPAGNIE ABITIBI CONSOLIDATED DU CANADA, DIVISION BEAUPR","1, rue du Moulin",,BEAUPRÉ,QC,G0A1E0,Pulp and Paper,WGS84,47.0429,-70.8795,NA,210
1996,989,"ADM/Ogilvie, Div. of ADM Agri Industries Ltd.",,675 Vicker St.,,THUNDER BAY,ON,P7C4V5,Other Manufacturing,WGS84,48.3753,-89.2493,ON-02AB-02,201
2009,992,AIR CANADA,VANCOUVER INTERNATIONAL AIRPORT,3211 Grant McConachie Way,,RICHMOND,BC,V7B1Y7,Other (Except Manufacturing),WGS84,49.185,-123.169,BC_103,08MH
2021,998,Air Canada,Regina International Airport,,,Regina,SK,S4W 1B3,Other (Except Manufacturing),WGS84,50.4329,-104.658,NA,05JF
2008,1002,AIR CANADA GROUND HANDLING SERVICES,WINNIPEG INTERNATIONAL AIRPORT,AIRPORT,,WINNIPEG,MB,R3C2N2,Other (Except Manufacturing),WGS84,49.9108,-97.2433,NA,05MJ
2016,1006,Jazz Aviation LP,Ottawa International Airport,1000 Airport Parkway Private Parkway,,OTTAWA,ON,K1V9B4,Other (Except Manufacturing),WGS84,45.32,-75.6647,ON-02LA-01,02LA
1997,1008,MIRABEL - AIR CANADA,MIRABEL INTERNATIONAL AIRPORT,AIRPORT,,MIRABEL,QC,J7N1G2,Other (Except Manufacturing),WGS84,45.6836,-74.029,NA,02OA
1997,1010,DORVAL - AIR CANADA,DORVAL INTERNATIONAL AIRPORT,AIRPORT,,DORVAL,QC,H4Y1C3,Other (Except Manufacturing),WGS84,45.4583,-73.7501,NA,210
2021,1012,Air Canada,Quebec International Airport,,,Quebec,QC,G2G 0J4,Other (Except Manufacturing),WGS84,46.7914,-71.3884,NA,02PD
2020,1014,Air Canada,Halifax International Airport,1 Bell Boulevard,,HALIFAX,NS,B2T 1K2,Other (Except Manufacturing),WGS84,44.8887,-63.5141,NA,01DG
2021,1018,Air Canada,Fredericton International Airport,,,Lincoln,NB,E3B 7E4,Other (Except Manufacturing),WGS84,45.8722,-66.5307,NA,01AO
2020,1020,Air Canada,Saint John International Airport,4180 Loch Lomond Road,,SAINT JOHN,NB,E2N 1L7,Other (Except Manufacturing),WGS84,45.3277,-65.8903,NA,01BV
2021,1022,Air Canada,Moncton International Airport,,,Dieppe,NB,E1A 7Z5,Other (Except Manufacturing),WGS84,46.1053,-64.6784,NA,01BU
2021,1024,Air Canada,Charlottetown International Airport,,,Maple Hills,PE,C1C 1N2,Other (Except Manufacturing),WGS84,46.2859,-63.1304,NA,01CC
2001,1026,Toronto - AIR CANADA,TORONTO INTERNATIONAL AIRPORT,AIRPORT,,TORONTO,ON,L5P1B4,Other (Except Manufacturing),WGS84,43.6795,-79.6065,ON-02HC-01,02HC
2021,1028,Alberta Newsprint Co.,ALBERTA NEWSPRINT,,,Whitecourt,AB,T7S 1P9,Pulp and Paper,WGS84,54.1791,-115.806,AB-17010501,07AE
2021,1033,Alberta Power 2000 Ltd.,Battle River Generating Station,,,Forestburg,AB,,Electricity,WGS84,52.5647,-112.1414,AB-09020202,05FB
2021,1036,Alberta Power 2000 Ltd.,Sheerness Generating Station,,,Hanna,AB,,Electricity,WGS84,51.5317,-111.7861,AB-08030102,05CG
2021,1039,Milner Power Limited Partnership by its GP Milner Power Inc.,H.R.Milner Generating Station,,,Municipal District of Greenview,AB,,Electricity,WGS84,54.0071,-119.104,AB-18020101,07GA
2021,1042,SUEZ Canada Waste Services Inc.,Swan Hills Treatment Center,,,Swan Hills,AB,T0G 2C0,Waste Treatment and Disposal,WGS84,54.775,-115.2186,AB-17040303,07BK
1994,1045,ALBRIGHT & WILSON AMERICAS LIMITED,,Main Street,P.O. Box 70,LONG HARBOUR,NL,A0B2J0,Chemicals,WGS84,47.4246,-53.8166,NA,02ZK
1999,1048,Albright & Wilson Amériques,Usine de Varennes,2772 Marie-Victorin,,VARENNES,QC,J3X1S9,Chemicals,WGS84,45.6917,-73.4306,NA,210
2000,1051,Rhodia Canada Inc. (Albright & Wilson Amérique ltée),Usine de Buckingham,470 rue ERCO,,BUCKINGHAM,QC,J8L1E1,Chemicals,WGS84,45.5958,-75.4167,NA,02LF
2021,1054,"Innophos Canada, Inc.","Innophos Canada, Inc.",,,Lowbanks,ON,N0A 1K0,Chemicals,WGS84,42.8631,-79.5683,ON-02GB-01,02GB
1993,1057,Alcan Aluminium Limited,,,,,BC,,,WGS84,49.1972,-123.0833,BC_103,08MH
2007,1067,ALERIS SPECIFICATION ALLOY PRODUCTS CANADA COMPANY,ALERIS GUELPH,240 Massey Rd.,,GUELPH,ON,N1K1C4,Aluminum,WGS84,43.5394,-80.3042,ON-02GA-09,02GA
2021,1070,Algoma Steel Inc. ,Algoma Steel Inc,,,Sault Ste. Marie,ON,P6A 7B4,Iron and Steel,WGS84,46.5208,-84.3697,ON-02CAA05,02CA
2021,1071,Aluminerie de Bécancour inc.,Aluminerie de Bécancour inc.,,,Bécancour,QC,G9H 2T7,Aluminum,WGS84,46.3829,-72.3874,NA,210
2021,1074,Whitecap Resources Inc.,Olds Gas Plant,,,Olds,AB,T2P 1G1,Conventional Oil and Gas extraction,WGS84,51.7423,-114.1345,AB-08020205,05CE
2021,1077,Canlin Energy Corporation,Ferrier Gas Plant,,,Ferrier,AB,,Conventional Oil and Gas extraction,WGS84,52.496,-114.988,AB-11010201,05DC
2021,1080,Canlin Energy Corporation,Boundary Gas Plant (11/14-24-084-15W6M),,,FSJ - Boundary Lake Sour,BC,,Conventional Oil and Gas extraction,WGS84,56.3009,-120.231,BC_117,07FD
2021,1083,Produits American Biltrite Ltée,PRODUITS AMERICAN BILTRITE LTEE. - SHERBROOKE,,,Sherbrooke,QC,J1H 4K3,Plastics and Rubber,WGS84,45.4052,-71.8946,NA,02OE
2013,1088,FRAM Group Canada Inc,FRAM Group Canada Inc,305 Romeo Street South,,STRATFORD,ON,N5A4T8,Transportation Equipment Mfg.,WGS84,43.3678,-80.9636,ON-02GD-11,02GD
2021,1091,Plains Midstream Canada ULC,Empress Gas Plant,,,Medicine Hat,AB,T1A 7H3,Conventional Oil and Gas extraction,WGS84,50.6756,-110.025,AB-04030301,05AK
2021,1093,Armstrong Manufacturing Inc.,2485 Haines Road,,,Mississauga,ON,L4Y 1Y7,Chemicals,WGS84,43.5944,-79.5931,NA,209
2020,1096,Nexeo Solutions Canada Corporation,Mississauga - Distribution,2620 Royal Windsor Drive,,MISSISSAUGA,ON,L5J 4E7,Other (Except Manufacturing),WGS84,43.4988,-79.6446,NA,02HB
2012,1099,Hall-Chem Mfg Inc.,Boucherville,1270 Nobel Street,,BOUCHERVILLE,QC,J4B5H1,Chemicals,WGS84,45.5698,-73.4379,NA,210
2013,1105,Graphic Packaging International Canada Corportation,Graphic Packaging - Brampton Plant,134 Kennedy Road,,BRAMPTON,ON,L6W3G5,Plastics and Rubber,WGS84,43.6844,-79.7343,ON-02HC-01,02HC
2021,1106,AltaSteel Inc.,AltaSteel Inc.,,,Edmonton,AB,T6B 2X6,Iron and Steel,WGS84,53.5291,-113.3875,AB-11030101,05EB
2021,1109,Atotech Canada Ltd.,ATOTECH CANADA,,,Burlington,ON,L7L 5R6,Chemicals,WGS84,43.3796,-79.7815,NA,02HB
2005,1111,UNIBOARD CANADA,UNIBOARD NEW LISKEARD INC.,1107 Lakeshore Road,P.O. Box 1840,NEW LISKEARD,ON,P0J1P0,Wood Products,WGS84,47.4741,-79.6574,ON-02JE-04,02JE
2021,1112,Agropur Cooperative,Agropur Coopérative - Usine de Don Mills,,,Toronto,ON,M3A 3P9,Other Manufacturing,WGS84,43.7404,-79.3264,ON-02HC-06,02HC
1999,1113,NATREL INC,,75 BATHURST ST,,LONDON,ON,N6B1N8,Other Manufacturing,WGS84,42.9794,-81.2502,ON-02GD-03,02GD
1997,1116,Avmor Ltee,,433 STE-HELENE,,MONTREAL,QC,H2Y2L1,Chemicals,WGS84,45.5013,-73,NA,02OG
2012,1117,General Paint Corp.,Shawinigan,5230 Royal Boulevard,,SHAWINIGAN,QC,G9N4R6,Chemicals,WGS84,46.5698,-72.7258,NA,02NG
2009,1119,BANNER PHARMACAPS CANADA LTD,BANNER PHARMACAPS,5807 - 47 Avenue,,OLDS,AB,T4H1S7,Chemicals,WGS84,51.7833,-114.1,AB-08010203,05CB
2004,1122,AMPACET CANADA COMPANY,DELTA - OLD SITE,917 Cliveden Ave Unit 103,,DELTA,BC,V3M1A3,Plastics and Rubber,WGS84,49.1753,-122.9402,BC_103,08MH
2021,1125,Bell Textron Canada Ltd.,BELL TEXTRON CANADA LIMITÉE,,,Mirabel,QC,J7J 1R4,Transportation Equipment Mfg.,WGS84,45.6878,-73.9312,NA,02OA
1995,1127,Island Copper Mine - BHP Minerals Canada Ltd.,,Lot 224 Concessn. No. 06-334-27100.005,Twnshp: Rupert Land District,PORT HARDY,BC,V0N2P0,Mining and Quarrying,WGS84,50.6,-127.4983,BC_66,08HF
2021,1136,Bombardier Inc.,Usine St-Laurent,,,Saint-Laurent,QC,H4R 1K2,Transportation Equipment Mfg.,WGS84,45.5139,-73.7,NA,210
2020,1139,Bombardier Inc.,Usine Dorval,500 Cote-Vertu,,DORVAL,QC,H4S 1Y9,Transportation Equipment Mfg.,WGS84,45.4744,-73.733,NA,210
2006,1142,BRANDON FOREST PRODUCTS LTD.,BRANDON FOREST PRODUCTS LTD.,3447 Kennedy Rd.,,SCARBOROUGH,ON,M1V3S1,Wood Products,WGS84,43.8203,-79.3056,NA,02HC
2009,1143,RESSOURCES CADISCOR,MINE GÉANT DORMANT,KM 118 route 109 nord,,AMOS,QC,J9T3A3,Mining and Quarrying,WGS84,49.1314,-77.9744,ON-04NA-02,04NA
2021,1145,Cameco Corporation,Port Hope Conversion Facility,,,Port Hope,ON,L1A 3A1,Chemicals,WGS84,43.9422,-78.2942,ON-029B-02,209
2021,1147,Cameco Corporation,Rabbit Lake Operation,,,Saskatoon,SK,S7M 1J3,Mining and Quarrying,WGS84,58.1938,-103.7158,NA,07LC
2021,1148,Cameco Corporation,Key Lake Operation,,,Saskatoon,SK,S7M 1J3,Mining and Quarrying,WGS84,57.2122,-105.6788,NA,06DA
2021,1149,Cameco Corporation,McArthur River Operation,,,Saskatoon,SK,S7M 1J3,Mining and Quarrying,WGS84,57.7622,-105.05,NA,07LB
2021,1152,Canada Colors & Chemicals Limited,COLBORNE PLANT,,,Colborne,ON,K0K 1S0,Plastics and Rubber,WGS84,44.023,-77.8916,NA,02HD
2021,1154,Brenntag Canada Inc.,Brampton Warehouse (OS33),,,Brampton,ON,L6W 1H8,Other (Except Manufacturing),WGS84,43.6861,-79.7267,ON-02HC-01,02HC
2021,1156,Sulco Chemicals,ELMIRA PLANT,,,Elmira,ON,N3B 2Z5,Chemicals,WGS84,43.5917,-80.5539,ON-02GA-03,02GA
1993,1159,"CCL CUSTOM MANUFACTURING, ISLINGTON PLANT",,,,,ON,,,WGS84,43.6292,-79.5189,NA,02HC
2007,1162,CELANESE CANADA,EDMONTON FACILITY,1250 Hayter Road N.W.,,EDMONTON,AB,T6S1A2,Chemicals,WGS84,53.5725,-113.3606,AB-11030101,05EB
2007,1165,CELANESE CANADA,WESTON TERMINAL,92  KENHAR Drive,,NORTH YORK,ON,M9L1N2,Other (Except Manufacturing),WGS84,43.7614,-79.546,ON-02HC-02,02HC
2021,1168,Textiles Montery (1996),Textiles Monterey,,,Drummondville,QC,J2B 6X1,Other Manufacturing,WGS84,45.869797,-72.482587,NA,02OF
2018,1169,Celestica International Inc.,CELESTICA TORONTO SITE,844 Don Mills Road,,TORONTO,ON,M3C1V7,Other Manufacturing,WGS84,43.7219,-79.3425,ON-02HC-06,02HC
1994,1170,Ajax Trim Plant,,274 MacKenzie Avenue,,AJAX,ON,L1S2E9,Transportation Equipment Mfg.,WGS84,43.8423,-79.0287,NA,02HC
2001,1172,CHT STEEL COMPANY LTD.,,300 NEWKIRK RD,,RICHMOND HILL,ON,L4C3G7,Other Manufacturing,WGS84,43.8873,-79.4323,ON-02HC-07,02HC
2021,1175,Agrium Inc.,Joffre Nitrogen Operations,,,Lacombe County,AB,,Chemicals,WGS84,52.3221,-113.5166,AB-08020101,05CD
2021,1177,Agrium Potash Ltd.,Vanscoy Potash Operations,,,Vanscoy,SK,S0L 3J0,Mining and Quarrying,WGS84,52.0057,-107.0936,NA,05HG
2021,1185,Skookumchuck Pulp Inc.,Skookumchuck Operation,,,Skookumchuck,BC,V0B 2E0,Pulp and Paper,WGS84,49.9151,-115.7579,BC_187,08NG
2021,1189,Bombardier Inc.,Toronto Site,,,Toronto,ON,M3K 1Y5,Transportation Equipment Mfg.,WGS84,43.7353,-79.4728,ON-02HC-02,02HC
2003,1192,CASCADES INC.,DÉSENCRAGE C.M.D.,702 Notre-Dame,,CAP DE LA MADELEINE,QC,G8T7W1,Pulp and Paper,WGS84,46.3717,-72.4967,NA,210
2021,1195,Domtar Inc.,Domtar Usine de Windsor,,,Windsor,QC,J1S 2L9,Pulp and Paper,WGS84,45.5644,-71.979,NA,02OF
2006,1197,DOMTAR INC.,CORNWALL BUSINESS UNIT,800  SECOND Street West,,CORNWALL,ON,K6H5S3,Pulp and Paper,WGS84,45.0139,-74.7461,ON-02MCA03,02MC
2021,1199,Panolam Industries Ltd.,Panolam Industries Ltd.,,,Huntsville,ON,P1H 2J7,Wood Products,WGS84,45.2929,-79.3106,ON-02EB-06,02EB
2021,1205,Dow Chemical Canada ULC,St. Clair River Site - Modified Polymers,,,Corunna,ON,N0N 1G0,Chemicals,WGS84,42.8978,-82.4403,ON-02GGA01,02GG
2021,1207,INVISTA (Canada) Company,INVISTA (Canada) Company-Maitland Site,,,Maitland,ON,K0E 1P0,Chemicals,WGS84,44.6606,-75.6017,ON-02MA-01,02MA
2004,1215,FORD MOTOR OF CANADA,ONTARIO TRUCK PLANT,ROYAL WINDSOR DRIVE,,OAKVILLE,ON,L6J5E4,Transportation Equipment Mfg.,WGS84,43.4823,-79.6656,NA,02HB
2021,1221,Twin Rivers Paper Company Inc.,Edmundston Pulp Mill,,,Edmundston,NB,E3V 1S9,Pulp and Paper,WGS84,47.3749,-68.3333,NA,01AD
2018,1224,Masco Canada Limited,Masco -South Edgeware,350 South edgeware,,ST THOMAS,ON,N5P4L1,Other Manufacturing,WGS84,42.7936,-81.1614,ON-02GC-09,02GC
1998,1227,Frost Wire Products Ltd.,,250 Lottridge St.,,HAMILTON,ON,L8L6V9,Iron and Steel,WGS84,43.259,-79.8295,ON-02HB-01,02HB
1993,1230,FABER-CASTELL CANADA INC.,,,,,ON,,,WGS84,43.6203,-79.5278,NA,209
2021,1233,Glencore Canada Corporation,Sudbury Operations Mines Mill - Onaping Area,,,Onaping,ON,P0M 2R0,Mining and Quarrying,WGS84,46.6742,-81.3425,ON-02CF-07,02CF
2021,1234,Garant GP,Garant,,,Saint-François,QC,G0R 3A0,Other Manufacturing,WGS84,46.8888,-70.7077,NA,02PH
2021,1236,Glencore Canada Corporation,Sudbury Integrated Nickel Operations Smelter,,,Falconbridge,ON,P0M 1S0,Metals (Except Aluminum and Iron and Steel),WGS84,46.5775,-80.8042,ON-02DB-02,02DB
1993,1239,"Federated Genco Limited, Burlington",,,,,ON,,,WGS84,43.3742,-79.7681,NA,209
2014,1242,AS Canada ULC,American Standard - Cornwall,235 Saunders Drive,,CORNWALL,ON,K6H5V2,Plastics and Rubber,WGS84,45.0139,-74.7806,ON-02MCA06,02MC
2021,1245,Owens Corning Insulating Systems Canada LP,Toronto Plant,,,Toronto,ON,M1V 1Z5,"Cement, Lime and Other Non-Metallic Minerals",WGS84,43.8245,-79.2554,NA,02HC
2021,1251,Owens Corning Insulating Systems Canada LP,Edmonton Plant,,,Edmonton,AB,T6S 1A1,"Cement, Lime and Other Non-Metallic Minerals",WGS84,53.5717,-113.3498,AB-11030101,05EB
2021,1257,Canfor Pulp Ltd.,Canfor Taylor Pulp,,,Taylor,BC,V0C 2K0,Pulp and Paper,WGS84,56.145,-120.651,BC_117,07FD
2021,1260,Fielding Chemical Technologies Inc.,FIELDING CHEMICAL TECHNOLOGIES INC.,,,Mississauga,ON,L5C 1T7,Waste Treatment and Disposal,WGS84,43.5763,-79.6477,ON-02HB-04,02HB
2021,1263,Sonoco Flexible Packaging Canada Corp.,Usine de fabrication d'emballages flexibles,,,Terrebonne,QC,J6W 1K8,Plastics and Rubber,WGS84,45.6982,-73.624,NA,210
2021,1266,Catalyst Paper Corporation,Crofton Division,,,Crofton,BC,V0R 1R0,Pulp and Paper,WGS84,48.875,-123.645,BC_36,08HA
2011,1269,Nemak of Canada Corp.,ESSEX ALUMINUM PLANT,6500 Cantelon Drive,,WINDSOR,ON,N9A6X8,Metals (Except Aluminum and Iron and Steel),WGS84,42.3017,-82.9423,ON-02GHA02,02GH
1994,1272,GARLOCK OF CANADA LTD,,2860 PLYMOUTH DR,,OAKVILLE,ON,L6H5S8,Plastics and Rubber,WGS84,43.5107,-79.674,NA,02HB
2021,1274,Garaga Inc.,Nouvelle Usine de St Georges de Beauce,,,Saint-Georges,QC,G6A 1K5,Other Manufacturing,WGS84,46.1423,-70.6723,NA,02PJ
2011,1281,General Electric Canada Co.,Oakville Lamp Plant,420 South Service Road,,OAKVILLE,ON,L6J2X6,Other Manufacturing,WGS84,43.4606,-79.6797,NA,02HB
1993,1284,Oakville West Lamp Plant,,,,,ON,,,WGS84,43.4292,-79.7167,NA,02HB
2018,1287,General Electric Canada Co.,Peterborough,107 Park Street,,PETERBOROUGH,ON,K9J7B5,Other Manufacturing,WGS84,44.2961,-78.33,ON-02HJ-03,02HJ
2004,1290,GENERAL CHEMICAL CANADA,AMHERSTBURG PLANT,381 front road north,,AMHERSTBURG,ON,N9V2Z6,Chemicals,WGS84,42.1217,-83.1068,ON-02GHA01,02GH
2009,1292,MOMENTIVE PERFORMANCE MATERIALS CANADA ULC,MOMENTIVE PERFORMANCE MATERIALS CANADA ULC,1920 Silicone Drive,,PICKERING,ON,L1W3V7,Chemicals,WGS84,43.8308,-79.0525,ON-02HC-08,02HC
2021,1300,Photech Environmental Solutions Inc.,Photech Chippawa Creek,,,Thorold,ON,L2E 6S5,Waste Treatment and Disposal,WGS84,43.04641,-79.17278,ON-02HA-02,02HA
2021,1303,Gibraltar Mines Ltd.,Gibraltar Mine (SFO),,,McLeese Lake,BC,V0L 1P0,Mining and Quarrying,WGS84,52.5299,-122.2851,BC_149,08KE
1994,1304,GNB Batteries (Canada) Inc.,,275 Lewis St.,,FORT ERIE,ON,L2A5N6,Other Manufacturing,WGS84,42.9237,-78.924,ON-02HA-01,02HA
2021,1307,Goodyear Canada Inc.,Usine Goodyear de Valleyfield,,,Salaberry-de-Valleyfield,QC,J6S 5G6,Plastics and Rubber,WGS84,45.2708,-74.1083,ON-02MCA01,02MC
2008,1310,VEYANCE TECHNOLOGIES CANADA INC.,Owen Sound Plant,3225 East Bayshore Road,,OWEN SOUND,ON,N4K5N3,Plastics and Rubber,WGS84,44.6017,-80.9181,NA,02FB
2007,1313,VEYANCE TECHNOLOGIES CANADA INC.,COLLINGWOOD HOSE PLANT,101  MOUNTAIN Road,,COLLINGWOOD,ON,L9Y3Z9,Plastics and Rubber,WGS84,44.5028,-80.2431,NA,02ED
2009,1316,GOODYEAR CANADA,GOODYEAR CANADA OTR CENTRE,612  GORMANVILLE Road,,NORTH BAY,ON,P1B8J5,Plastics and Rubber,WGS84,46.3287,-79.4894,ON-02DD-05,02DD
2016,1319,Veyance Technologies Canada inc.,Bowmanville,45 Raynes Avenue,,BOWMANVILLE,ON,L1C1J3,Plastics and Rubber,WGS84,43.9092,-78.6872,ON-029B-01,02HD
2021,1322,Goodyear Canada Inc.,Goodyear Canada Inc. ,,,Napanee,ON,K7R 3L2,Plastics and Rubber,WGS84,44.287,-76.9482,ON-02HM-01,02HM
2012,1325,Veyance Technologies Canada inc.,usine de Québec,1195 TAILLON,,QUEBEC,QC,G1N3V2,Plastics and Rubber,WGS84,46.8017,-71.2533,NA,02PD
2000,1328,Hercules Canada (BetzDearborn Division),Mississauga Plant,3451 Erindale Station Road,P.O. Box 3060 Station A,MISSISSAUGA,ON,L5A3T5,Chemicals,WGS84,43.5693,-79.6576,ON-02HB-04,02HB
2021,1329,ContiTech Canada Inc.,Usine Granford,,,St-Alphonse de Granby,QC,J0E 2A0,Plastics and Rubber,WGS84,45.342,-72.8306,NA,02OG
2003,1332,GREATER VANCOUVER REGIONAL DISTRICT,Capilano Chlorination,5077 Capilano Road,,DISTRICT OF NORTH VANCOUVER,BC,V7R4K4,Water and Wastewater Systems,WGS84,49.3589,-123.1098,BC_190,08GA
2003,1334,GREATER VANCOUVER REGIONAL DISTRICT,Seymour Chlorination,North End of Lillooet Road,,DISTRICT OF NORTH VANCOUVER,BC,V5H4G8,Water and Wastewater Systems,WGS84,49.4395,-122.9681,BC_190,08GA
2018,1336,Greater Vancouver Regional District,Coquitlam Water Treatment Plant,2052 Pipeline Road,,COQUITLAM,BC,V3E3P6,Water and Wastewater Systems,WGS84,49.33893,-122.77243,BC_103,08MH
2021,1338,Greater Vancouver Sewerage and Drainage District,Annacis Island Wastewater Treatment Plant,,,Delta,BC,V3M 5V9,Water and Wastewater Systems,WGS84,49.1661,-122.952,BC_103,08MH
2021,1340,Greater Vancouver Sewerage and Drainage District,Lulu Island Wastewater Treatment Plant,,,Richmond,BC,V7E 2H8,Water and Wastewater Systems,WGS84,49.1147,-123.145,BC_103,08MH
2021,1342,Greater Vancouver Sewerage and Drainage District,Lions Gate Wastewater Treatment Plant,,,West Vancouver,BC,V7P 3R2,Water and Wastewater Systems,WGS84,49.3195,-123.136,BC_190,08GA
2020,1344,Griffin Canada Inc.,GRIFFIN CANADA - WINNIPEG,,,Winnipeg,MB,R2C 3A4,Iron and Steel,WGS84,49.913,-97.0025,NA,05OJ
2021,1353,Axalta Coating Systems Canada Company,CORNWALL FACILITY,,,Cornwall,ON,K6H 5R6,Chemicals,WGS84,45.0117,-74.7773,ON-02MCA03,02MC
2021,1356,Guardian Chemicals Inc.,GUARDIAN CHEMICALS - Sturgeon County,,,Sturgeon County,AB,T8L 5C1,Chemicals,WGS84,53.752,-113.232,AB-11030101,05EB
2010,1357,CPK INTERIOR PRODUCTS INC.,GUELPH PRODUCTS,500 Laird Road,,GUELPH,ON,N1H6N7,Transportation Equipment Mfg.,WGS84,43.4942,-80.2086,ON-02GA-09,02GA
1996,1360,Gulf Canada Resources Ltd.,Gulf - Nisku Distribution Centre,P.O. Box 73,2306 - 8 St.,NISKU,AB,T0C2G0,Other (Except Manufacturing),WGS84,53.3426,-113.526,AB-11020203,05DF
2021,1362,Keyera Corp,Brazeau River Gas Plant,,,Drayton Valley,AB,T7A 1S5,Conventional Oil and Gas extraction,WGS84,52.94707,-115.9026,AB-11010404,05DD
2019,1364,Keyera Corp,Gilby Sour Gas Plant 15-22-040-03W5,,,,AB,,Conventional Oil and Gas extraction,WGS84,52.463,-114.3465,AB-08010302,05CC
1994,1366,Gulf - Goose River EOR Battery,,P.O. Box 510,,VALLEYVIEW,AB,T0H3N0,,WGS84,54.7925,-116.6439,AB-18020704,07GG
2021,1368,Pine Cliff Energy Ltd.,Ghost Pine Sweet Gas Plant 08-11-031-21W4,,,na,AB,,Conventional Oil and Gas extraction,WGS84,51.6372,-112.866,AB-08020101,05CD
2021,1370,Keyera Corp,Nordegg River Gas Plant,,,Nordegg,AB,,Conventional Oil and Gas extraction,WGS84,52.7761,-115.6607,AB-11010406,05DD
2021,1372,Keyera Corp,Rimbey Gas Plant,,,Rimbey,AB,T0C 2J0,Conventional Oil and Gas extraction,WGS84,52.7581,-114.1116,AB-08010303,05CC
2021,1374,Keyera Corp,Strachan Gas Plant,,,Rocky Mountain House,AB,T4T 1B5,Conventional Oil and Gas extraction,WGS84,52.2263,-115.177,AB-11010302,05DB
1994,1376,Gulf - Westerose EOR Battery,,P.O. Box 518,,ECKVILLE,AB,T0M0X0,,WGS84,52.9304,-113.9827,AB-09010101,05FA
1995,1378,HAGER HINGE CANADA LTD.,,771 WILSON AVE.,,KITCHENER,ON,N2G3W9,Other Manufacturing,WGS84,43.4144,-80.4423,ON-02GA-02,02GA
2021,1383,Nanaimo Forest Products Ltd.,Harmac Pacific Operations,,,Nanaimo,BC,V9X 1J2,Pulp and Paper,WGS84,49.1369,-123.8564,BC_36,08HA
1999,1385,NORANDA INC.,Heath Steele,PO Box 400,,MIRAMICHI,NB,E1V3M5,Mining and Quarrying,WGS84,47.2906,-66.0706,NA,01BQ
2010,1388,Harsco Metals,STELCO - HAMILTON (FORMERLY PLANT 8),Gate - Wilcox Street,,HAMILTON,ON,L8L7T5,"Cement, Lime and Other Non-Metallic Minerals",WGS84,43.2691,-79.8253,ON-02HB-01,02HB
2021,1391,Harsco Inc.,Arcelor Mittal Dofasco (Formerly Plt14),,,Hamilton,ON,L8R 3M2,"Cement, Lime and Other Non-Metallic Minerals",WGS84,43.2628,-79.7986,ON-02HB-01,02HB
2021,1394,Harsco Inc.,Stelco-Lake Erie (Formerly Plant 17),,,Nanticoke,ON,N0A 1L0,"Cement, Lime and Other Non-Metallic Minerals",WGS84,42.8108,-80.0961,ON-02GC-01,02GC
2009,1397,MULTISERV CANADA,ISPAT SIDBEC-CONTRECOEUR,3500 Marie Victorin Boulevard,,CONTRECOEUR,QC,J0L1C0,"Cement, Lime and Other Non-Metallic Minerals",WGS84,45.8392,-73.2633,NA,210
2014,1400,Newmont Canada Corporation,Golden Giant Mine,"1 Yellow Brick Road, Hwy #17 at km 876.5",,MARATHON,ON,P0T2E0,Mining and Quarrying,WGS84,48.695,-85.905,ON-02BB-11,02BB
2008,1401,HENKEL CANADA CORPORATION,HENKEL SURFACE TECHNOLOGIES,165 Rexdale Blvd,,TORONTO,ON,M9W1P7,Chemicals,WGS84,43.7114,-79.5694,ON-02HC-02,02HC
2010,1406,H.L. Blachford Ltd.,MONTREAL,977 Lucien-L'Allier,,MONTREAL,QC,H3G2C3,Chemicals,WGS84,45.495,-73.5716,NA,210
2021,1407,H.L. Blachford Ltd.,Mississauga,,,Mississauga,ON,L5J 1K5,Chemicals,WGS84,43.5061,-79.6356,NA,209
2021,1408,BASF Canada Inc.,Regina Site,,,Regina,SK,S4N 6C2,Chemicals,WGS84,50.4734,-104.5611,NA,05JF
2014,1411,Bonavista Energy Corporation,Carstairs-Crossfield Former GP,,,CAR ELKTNU,AB,,,WGS84,51.534793,-114.203825,AB-08010203,05CB
1993,1413,Hostmann-Steinberg Limited,,,,,ON,,,WGS84,43.7747,-79.2436,NA,02HC
2004,1414,RIDEAU FOREST PRODUCTS,RIDEAU FOREST PRODUCTS,305 Bridge St,P.O.Box 1257,KEMPTVILLE,ON,K0G1J0,Wood Products,WGS84,45.0151,-75.6341,ON-02LA-08,02LA
2021,1417,DSM Nutritional Products Canada Inc.,Cambridge Premix,,,Ayr,ON,N0B 1E0,Other (Except Manufacturing),WGS84,43.337,-80.4399,ON-02GA-05,02GA
1998,1418,Hoffmann LaRoche Limited,High River Premix,"1007-20th Street, S.E.",,HIGH RIVER,AB,T1V1M7,Other (Except Manufacturing),WGS84,50.5725,-113.8369,AB-04010501,05AC
2021,1419,Howe Sound Pulp & Paper Corporation,Howe Sound Pulp and Paper Mill,,,Port Mellon,BC,V0N 2S0,Pulp and Paper,WGS84,49.5237,-123.4837,BC_73,08GB
2017,1422,SWISSPORT CANADA DEICING INC.,St. John's NFLD,80 Craig Dobbin Way,,ST. JOHN'S,NL,A1A5T2,Other (Except Manufacturing),WGS84,47.6135,-52.7431,NA,02ZL
2019,1423,SWISSPORT CANADA INC.,Halifax,1 Bell Boulevard,,ENFIELD,NS,B2T 1K2,Other (Except Manufacturing),WGS84,44.8869,-63.5138,NA,01DG
1997,1424,HUDSON GENERAL AVIATION SERVICES INC,,690 ALBERT DE NIVERVILLE,MONTREAL INT'L AIRPORT,DORVAL,QC,H4Y1G6,Other (Except Manufacturing),WGS84,45.4523,-73.752,NA,210
1995,1425,HUDSON GENERAL AVIATION SERVICES INC,,12350 RUE SERVICES A-2,MONTREAL INT'L AIRPORT,MIRABEL,QC,J7N1G5,Other (Except Manufacturing),WGS84,45.6778,-74.0361,NA,02OA
2011,1426,Servisair Inc.,Ottawa,130 Thad Johnson,,OTTAWA,ON,K1V0X1,Other (Except Manufacturing),WGS84,45.3244,-75.6636,ON-02LA-01,02LA
2015,1427,SWISSPORT CANADA DEICING INC.,TPIA - Central Deicing Facility,2400 Britannia Road,,MISSISSAUGA,ON,L4W2P7,Other (Except Manufacturing),WGS84,43.6694,-79.5989,ON-02HC-01,02HC
2006,1489,PROMENS CANADA INC.,PROMENS CANADA INC. - LINDSAY,423 Highway 36 South,,LINDSAY,ON,K9V4R8,Plastics and Rubber,WGS84,44.3675,-78.7247,ON-02HH-04,02HH
2021,1492,Arkema Canada Inc.,Usine de Bécancour,,,Bécancour,QC,G9H 2Y8,Chemicals,WGS84,46.3841,-72.3735,NA,210
2021,1495,DCL Corporation,Ajax Plant,,,Ajax,ON,L1S 2E2,Chemicals,WGS84,43.8378,-79.0294,ON-02HC-08,209
2021,1497,DCL Corporation,New Toronto Plant,,,Toronto,ON,M8V 3X4,Chemicals,WGS84,43.6061,-79.5083,NA,209
2009,1502,TRANSCONTINENTAL PRINTING,TRANSCONTINENTAL YORKVILLE-O'KEEFE,8 Tidemore Avenue,,ETOBICOKE,ON,M9W5H4,Other Manufacturing,WGS84,43.7144,-79.5858,ON-02HC-02,02HC
2005,1505,DATA BUSINESS FORMS LIMITED,EDMONTON,9815 - 42nd Avenue,,EDMONTON,AB,T6E0A3,Other Manufacturing,WGS84,53.4787,-113.4827,AB-11020201,05EB
2006,1508,KINROSS GOLD CORPORATION,LUPIN GOLD MINE,Lupin Operations,,CONTWOYTO LAKE,NU,X0E1M0,Mining and Quarrying,WGS84,65.7569,-111.2481,NA,10QC
2021,1510,Mosaic Potash Esterhazy Limited Partnership,MOSAIC POTASH ESTERHAZY - K1 SITE,,,Esterhazy,SK,S0A 0X0,Mining and Quarrying,WGS84,50.7283,-101.9308,NA,05JM
2021,1513,Mosaic Potash Esterhazy Limited Partnership,MOSAIC POTASH ESTERHAZY - K2 SITE,,,Esterhazy,SK,S0A 0X0,Mining and Quarrying,WGS84,50.6574,-101.8422,NA,05JM
2006,1516,INTERTAPE POLYMER GROUP,ENGINEERED COATED PRODUCTS,50 Abbey Ave.,,TRURO,NS,B2N6W4,Plastics and Rubber,WGS84,45.3468,-63.2917,NA,01DH
1994,1518,IPEX INC.,,324 Carlingview Drive,Rexdale,ETOBICOKE,ON,M9W5G5,Plastics and Rubber,WGS84,43.6918,-79.5981,NA,02HC
2021,1519,ITL (Integrated Technology Ltd).,ITL CIRCUITS,,,Markham,ON,L3R 1C4,Other Manufacturing,WGS84,43.8233,-79.3489,ON-02HC-06,02HC
2021,1520,Ivaco Rolling Mills 2004 L. P.,Ivaco Rolling Mills,,,L'Orignal,ON,K0B 1K0,Iron and Steel,WGS84,45.6133,-74.705,ON-02LB-02,02LB
2021,1525,Papier Masson Ltée.,PAPIERS WHITE BIRCHmc - DIVISION PAPIER MASSON LTÉE,,,Gatineau,QC,J8M 2E1,Pulp and Paper,WGS84,45.5417,-75.425,NA,02LF
2021,1528,Fortress Cellulose Spécialisée,Usine de Thurso,,,Thurso,QC,J0X 3B0,Pulp and Paper,WGS84,45.5985,-75.2562,ON-02LB-03,02LB
2014,1531,Maple Leaf Foods Inc.,Maple Leaf Foods - Kitchener,321 Courtland Avenue,,KITCHENER,ON,N2G3X8,Other Manufacturing,WGS84,43.4392,-80.4817,ON-02GA-02,02GA
2008,1534,JOHN DEERE LIMITED,JOHN DEERE WELLAND WORKS,555 Canal Bank Street,,WELLAND,ON,L3B3N3,Other Manufacturing,WGS84,42.9547,-79.2483,ON-02HA-03,02HA
2002,1539,JOHNSON CONTROLS LP,ORANGEVILLE FACILITY,120 C Line,,ORANGEVILLE,ON,L9W2Z5,Transportation Equipment Mfg.,WGS84,43.9062,-80.1156,ON-02HB-06,02HB
2021,1541,Kawneer Company Canada Ltd.,Lethbridge,,,Lethbridge,AB,T1H 5S8,Aluminum,WGS84,49.7201,-112.7819,AB-04010601,05AD
2021,1544,ZF Automotive Canada Ltd Woodstock,ZF Automotive Canada (Woodstock ON),,,Woodstock,ON,N4S 7X8,Transportation Equipment Mfg.,WGS84,43.1294,-80.7197,ON-02GD-06,02GD
2005,1547,METAL TECHNOLOGIES,WOODSTOCK GRAY IRON PLANT,303  TECUMSEH Street,,WOODSTOCK,ON,N4S5Z2,Iron and Steel,WGS84,43.1403,-80.7693,ON-02GD-06,02GD
2021,1553,K-G Spray-Pak Inc. KG,Concord Facility,,,Concord,ON,L4K 1Y8,Chemicals,WGS84,43.8058,-79.5008,ON-02HC-06,02HC
2021,1555,Franke Kindred Canada Ltd.,Franke Kindred Canada Limited,,,Midland,ON,L4R 4K9,Other Manufacturing,WGS84,44.7354,-79.8505,ON-02ED-02,02ED
2017,1558,Martinrea Coatings,Martinrea Coatings,340 Carlingview Drive,,TORONTO,ON,M9W5G5,Other Manufacturing,WGS84,43.6932,-79.5987,NA,02HC
2021,1560,Korzite Coatings Inc.,KORZITE COATINGS INC,,,Guelph,ON,N1H 6N3,Chemicals,WGS84,43.5045,-80.2702,ON-02GA-09,02GA
2021,1561,"KRONOS Canada, Inc.","KRONOS Canada, Inc.",,,Varennes,QC,J3X 1T4,Chemicals,WGS84,45.7125,-73.425,NA,210
2021,1562,Sherwin-Williams Canada Inc,Sherwin-Williams Brantford Plant,,,Brantford,ON,N3S 7W4,Chemicals,WGS84,43.1553,-80.2094,ON-02GB-05,02GB
2010,1564,LAB CHRYSOTILE,LAB CHRYSOTILE - THETFORD MINES,112 Route,,THETFORD MINES,QC,G6H2M9,Mining and Quarrying,WGS84,46.0792,-71.2917,NA,02PL
2021,1565,Laboratoires Choisy Ltée.,LABORATOIRES CHOISY LTÉE - LOUISEVILLE,,,Louiseville,QC,J5V 2L7,Chemicals,WGS84,46.2566,-72.9311,NA,02OC
1997,1566,Barrick Gold Corporation,Golden Patricia Mine,"Mining claims,","70 km W of Pickle Lake, Kenora Distric",PATRICIA (KWASHI LAKE),ON,P8N3J3,Mining and Quarrying,WGS84,51.3864,-91.1201,ON-04FAA10,04FA
2021,1568,KIRKLAND LAKE GOLD INC,Macassa Mine,,,Kirkland Lake,ON,P2N 3J1,Mining and Quarrying,WGS84,48.1463,-80.0607,ON-02JC-12,02JC
1993,1569,Lafarge Canada Inc.,,,,,QC,,,WGS84,45.3408,-73.5217,NA,02OA
2021,1572,"Lake Utopia Paper A Division of J.D. Irving, Limited","Lake Utopia Paper A Division of J.D. Irving, Limited",,,Utopia,NB,E5C 2K4,Pulp and Paper,WGS84,45.1567,-66.7714,NA,01AQ
2000,1575,Lantic Sugar Ltd.,Saint John Refinery,330 Charlotte Street,,SAINT JOHN,NB,E2L4L4,Other Manufacturing,WGS84,45.2634,-66.0568,NA,01AP
2021,1578,"Laurel Steel, A division of Harris Steel ULC","Laurel Steel, A division of Harris Steel ULC",,,Burlington,ON,L7R 5N5,Iron and Steel,WGS84,43.3842,-79.7592,NA,02HB
2012,1580,Bemis Flexible Packaging Canada (Limited),Arrow Road,130 Arrow Road,,TORONTO,ON,M9M2M1,Other Manufacturing,WGS84,43.7441,-79.5306,ON-02HC-02,02HC
2008,1583,DANA,THERMAL PRODUCTS DIVISION,6635 ORDAN DRIVE,,MISSISSAUGA,ON,L5T1K6,Transportation Equipment Mfg.,WGS84,43.6619,-79.6661,ON-02HC-01,02HC
2021,1585,Prairie Mines & Royalty ULC,Coal Valley Mine,,,Edson,AB,T7E 1W1,Mining and Quarrying,WGS84,53.0892,-116.8059,AB-17030101,07BA
2002,1588,MacDermid Chemicals Inc.,,4530 Eastgate Parkway,,MISSISSAUGA,ON,L4W3W6,Chemicals,WGS84,43.6373,-79.6076,ON-02HC-01,02HC
2002,1591,WEYERHAEUSER SASKATCHEWAN LIMITED,HUDSON BAY OSB1000,Highway #9 South,Box 40,HUDSON BAY,SK,S0E0Y0,Wood Products,WGS84,52.8464,-102.388,NA,05LB
2002,1592,Weyerhaeuser,STURGEON FALLS,129 Cache Bay Road,,STURGEON FALLS,ON,P2B2Z9,Pulp and Paper,WGS84,46.3753,-79.9501,ON-02DC-01,02DC
2021,1593,Catalyst Paper Corporation,Port Alberni Division,,,Port Alberni,BC,V9Y 5J7,Pulp and Paper,WGS84,49.2478,-124.811,BC_2,08HB
2006,1596,"TEMBEC INDUSTRIES INC., SMOOTH ROCK FALLS DIVISION",SMOOTH ROCK FALLS DIVISION,1 Mill Road,P.O. Box 310,SMOOTH ROCK FALLS,ON,P0L2B0,Pulp and Paper,WGS84,49.2858,-81.635,ON-04LB-02,04LB
2002,1598,INMET MINING CORPORATION,WINSTON LAKE DIVISION,WHITESAND LAKE ROAD,P.O. BAG #2,SCHREIBER,ON,P0T2S0,Mining and Quarrying,WGS84,48.9793,-87.375,NA,02BA
2021,1608,Iamgold Corporation,La mine Doyon,,,Preissac,QC,J0Y 2E0,Mining and Quarrying,WGS84,48.2526,-78.4354,NA,02JB
2021,1611,Glencore Canada Corporation,Mine Matagami,,,Matagami,QC,J0Y 2A0,Mining and Quarrying,WGS84,49.7272,-77.7456,NA,03AC
2007,1617,UPM KYMMENE MIRAMICHI INC.,PAPER MILL DIVISION,345 Curtis Road,PO Box 5040,MIRAMICHI,NB,E1V3N3,Pulp and Paper,WGS84,46.9694,-65.5942,NA,01BO
2007,1620,UPM KYMMENE MIRAMICHI INC.,GROUNDWOOD MILL DIVISION,160 Nelson Street,,MIRAMICHI,NB,E1N6A7,Pulp and Paper,WGS84,46.9727,-65.5551,NA,01BO
2019,1623,Teledyne Dalsa Semiconducteur Inc.,DALSA SEMICONDUCTOR - BROMONT,18 de l'Aeroport,,BROMONT,QC,J2L1S7,Other Manufacturing,WGS84,45.2987,-72.7142,NA,02OG
2021,1639,Molson Coors Canada,Brasserie de Montréal,,,Montréal,QC,H2L 2R5,Other Manufacturing,WGS84,45.5187,-73.548,NA,210
2019,1645,Tenneco Canada,Tenneco (Automotive) Canada Inc - Monroe,1800 17th Street East,,OWEN SOUND,ON,N4K5Z9,Transportation Equipment Mfg.,WGS84,44.5775,-80.9144,NA,02FB
2007,1648,SOLUTIA CANADA,PRODUITS CHIMIQUES,6800 rue St-Patrick,,LASALLE,QC,H8N2H3,Chemicals,WGS84,45.4538,-73.6188,NA,210
2001,1649,Montank,Hamilton Terminal,655 Victoria Ave. N.,,HAMILTON,ON,L8L8G7,Other (Except Manufacturing),WGS84,43.2682,-79.8504,ON-02HB-01,02HB
2021,1651,Gerdau Ameristeel Corporation,"Gerdau Ameristeel Corporation, Manitoba Mill",,,Selkirk,MB,R1A 1P6,Iron and Steel,WGS84,50.1302,-96.9013,NA,05OJ
2004,1653,MOTOR COACH INDUSTRIES,ST. MATTHEWS,1149 St. Matthews Avenue,,WINNIPEG,MB,R3G0J8,Transportation Equipment Mfg.,WGS84,49.8905,-97.1822,NA,05MJ
2021,1656,Motor Coach Industries,Fort Garry Plants 4 & 5,,,Winnipeg,MB,R3T 1T5,Transportation Equipment Mfg.,WGS84,49.8283,-97.175,NA,05OC
2020,1659,Frank Fair Industries Ltd.,FRANK FAIR INDUSTRIES - WINNIPEG,400 Archibald Street,,WINNIPEG,MB,R2J 0W9,Chemicals,WGS84,49.8886,-97.1036,NA,05OH
2008,1662,M. STANTON ELECTROPLATING LTD.,M. STANTON ELECTROPLATING LTD.,"1120 Bellamy Road North, # 11",,SCARBOROUGH,ON,M1H1H3,Other Manufacturing,WGS84,43.7758,-79.2425,NA,02HC
1993,1663,MTC Animal Health,,,,,ON,,,WGS84,43.4176,-80.3291,ON-02GA-09,02GA
1996,1666,Depco International Inc.,Multibrite limited,35 Carson Street,,ETOBICOKE,ON,M8W3R8,Other Manufacturing,WGS84,43.6015,-79.534,NA,209
2021,1668,NALCO Canada ULC,Burlington,,,Burlington,ON,L7R 3Y9,Chemicals,WGS84,43.3428,-79.8175,ON-02HB-01,02HB
2020,1671,Nexeo Solutions Canada Corporation,Edmonton - Distribution,1720 106th Avenue,,EDMONTON,AB,T6P 1X9,Other (Except Manufacturing),WGS84,53.5592,-113.3888,AB-11030101,05EB
2009,1674,INTERNATIONAL TRUCK & ENGINE CORPORATION CANADA,CHATHAM ASSEMBLY PLANT,508 Richmond Street,,CHATHAM,ON,N7S5M4,Transportation Equipment Mfg.,WGS84,42.3894,-82.1967,ON-02GE-01,02GE
2021,1681,Arclin Canada Holdings Ltd.,Arclin Canada Ltée - Ste Therese,,,Sainte-Thérèse,QC,J7E 4R9,Chemicals,WGS84,45.6339,-73.8398,NA,02OA
2009,1684,ARCLIN CANADA,ARCLIN CANADA LTD - THUNDER BAY,1100 Montreal Street,,THUNDER BAY,ON,P7E6T8,Chemicals,WGS84,48.3569,-89.2981,ON-02AB-03,02AB
2014,1687,Arclin Canada Ltd.,ARCLIN CANADA LTD. - NORTH BAY,281 Wallace Road,,NORTH BAY,ON,P1A2W8,Chemicals,WGS84,46.3221,-79.4256,ON-02DD-05,02DD
2000,1690,Neste Chemicals Canada Inc,Neste Chemicals Canada Inc - Lindsay,76 St. David Street,,LINDSAY,ON,K9V1N7,Chemicals,WGS84,44.3657,-78.7598,ON-02HH-04,02HH
2014,1693,Arclin Canada Ltd.,Arclin Kamloops,720 Kingston Avenue,,KAMLOOPS,BC,V2B2C8,Chemicals,WGS84,50.71,-120.3625,BC_115,08LF
2021,1696,New Brunswick Power Corporation,Coleson Cove Generating Station,,,Saint John,NB,E2M 7T7,Electricity,WGS84,45.1534,-66.2025,NA,01AP
2021,1698,New Brunswick Power Corporation,Belledune Generating Station,,,Belledune,NB,E8G 2M3,Electricity,WGS84,47.9058,-65.867,NA,01BJ
1993,1700,CHATHAM GENERATING STATION,,,,,NB,,,WGS84,47.0417,-65.4625,NA,01BO
2009,1702,NEW BRUNSWICK POWER GENERATION CORPORATION,Millbank Generating Station,220 McHardy Road,,MIRAMICHI,NB,E1V6M8,Electricity,WGS84,47.0728,-65.4559,NA,01BO
2007,1706,NEW BRUNSWICK POWER GENERATION CORPORATION,COURTENAY BAY GENERATING STATION,509 Bayside Drive,,SAINT JOHN,NB,E2J1B4,Electricity,WGS84,45.2747,-66.0275,NA,01AP
2010,1708,NB Power Generation Corporation,Grand Lake Generating Station,25 Wharf Road,,NEWCASTLE CREEK,NB,E4B2J8,Electricity,WGS84,46.0572,-66.0051,NA,01AO
2021,1710,New Brunswick Power Corporation,Point Lepreau Generating Station,,,Maces Bay,NB,E5J 1W1,Electricity,WGS84,45.069,-66.4556,NA,01AQ
2012,1712,NB Power Generation Corporation,Dalhousie Generating Station,101 Thermal Lane,,DALHOUSIE,NB,E8C2N7,Electricity,WGS84,48.0519,-66.3702,NA,01BJ
2004,1714,STELLA-JONES INC.,CLARENVILLE,2 Hardwoods road,,CLARENVILLE,NL,A5A1H2,Wood Products,WGS84,48.1515,-53.9724,NA,02ZJ
2021,1715,Niagara Piston Inc.,NIAGARA PISTON INC,,,Beamsville,ON,L0R 1B4,Transportation Equipment Mfg.,WGS84,43.1853,-79.4753,NA,02HA
2021,1742,Mosaic Potash Colonsay ULC,Mosaic Potash Colonsay,,,Colonsay,SK,S0K 0Z0,Mining and Quarrying,WGS84,51.9333,-105.7638,NA,05JJ
2012,1745,Norbord inc,Division Val d'Or,1 des Panneaux Rue,,VAL-D'OR,QC,J9P7A1,Wood Products,WGS84,48.1167,-77.7807,ON-04NA-06,04NA
2021,1748,Norbord inc,Division La Sarre,,,La Sarre,QC,J9Z 2X5,Wood Products,WGS84,48.8,-79.1917,ON-04MA-03,04MA
1996,1751,Norcen Energy Resources Ltd.,NORCEN KNOPCIK GAS PLANT,Highway,,HYTHE,AB,T0H2C0,,WGS84,55.4144,-119.6016,AB-18020401,07GD
2020,1753,Keyera Corp,Minnehik Buck Lake Gas Plant,,,BUCK LAKE,AB,,Conventional Oil and Gas extraction,WGS84,52.9404,-114.8323,AB-11020101,05DE
2021,1755,Canadian Natural Resources Limited,Progress Gas Plant 01-01-078-10 W6M,,,N/A,AB,,Conventional Oil and Gas extraction,WGS84,55.7251,-119.3999,AB-18010207,07FD
1995,1757,Northern Telecom,,150 Montreal-Toronto Blvd,,LACHINE,QC,H8S1B6,Other Manufacturing,WGS84,45.454,-73.6299,NA,210
1995,1760,Northern Telecom Canada Ltd.,,3705 35 St. NE,,CALGARY,AB,T1Y6C2,,WGS84,51.0848,-113.9552,AB-04020901,05BM
1993,1763,Northern Telecom Canada,,,,,QC,,,WGS84,45.4903,-73.7467,NA,210
1999,1766,Nortel Networks Corporation,Carrier Solutions,250 Sidney St,,BELLEVILLE,ON,K8N5B7,Other Manufacturing,WGS84,44.1607,-77.3989,ON-029C-02,209
2021,1770,Northland Power Inc.,Kirkland Lake Generating Station,,,Kirkland Lake,ON,P2N 3M7,Electricity,WGS84,48.1347,-80.0425,ON-02JC-03,02JC
2015,1773,Northland Power Inc.,Cochrane Generating Station,506 4th Street East,,COCHRANE,ON,P0L1C0,Electricity,WGS84,49.06218,-81.00565,ON-04MC-02,04MC
2021,1776,NOVA Chemicals Corporation (OBPS),Corunna Site,,,Corunna,ON,N0N 1G0,Chemicals,WGS84,42.8825,-82.4044,ON-02GGA01,02GG
2021,1779,NOVA Chemicals Corporation,NOVA Chemicals Corporation (Joffre),,,Lacombe,AB,T4L 2N2,Chemicals,WGS84,52.3083,-113.55,AB-08020101,05CD
2021,1782,Methanex Corporation,Methanex Medicine Hat Methanol Plant,,,Medicine Hat,AB,T1A 7H1,Chemicals,WGS84,50.08071,-110.72786,AB-04030301,05AK
2021,1785,INEOS Styrolution Canada Ltd.,INEOS Styrolution,,,Sarnia,ON,N7T 7H5,Chemicals,WGS84,42.9385,-82.4137,NA,02FF
2021,1788,NOVA Chemicals Corporation (OBPS),Moore Site,,,Mooretown,ON,N0N 1M0,Chemicals,WGS84,42.8489,-82.4244,ON-02GGA01,02GG
2021,1797,Canfor Pulp Ltd.,Northwood Pulp Mill,,,Prince George,BC,V2L 4W2,Pulp and Paper,WGS84,53.9779,-122.695,BC_197,08KE
2001,1801,Hydro Agri Canada S.E.C.,,"418, rang 3",,STE-ROSALIE,QC,J0H1X0,Other (Except Manufacturing),WGS84,45.575,-72.925,NA,02OG
2002,1802,Hydro Agri Canada S.E.C.,,6000 ST-PATRICK,,MONTREAL,QC,H4E1B3,Other (Except Manufacturing),WGS84,45.4593,-73.6061,NA,210
2014,1809,Ontario Power Generation Inc.,Lambton Generating Station,1886 St. Clair Parkway,,COURTRIGHT,ON,N0N1H0,Electricity,WGS84,42.7961,-82.4697,ON-02GGA01,02GG
2021,1812,Ontario Power Generation Inc.,Lennox Generating Station,,,Greater Napanee,ON,K0H 1G0,Electricity,WGS84,44.1439,-76.8492,NA,209
1994,1815,OSF INC.,,650 BARMAC DRIVE,,NORTH YORK,ON,M9L2X8,Other Manufacturing,WGS84,43.7645,-79.5537,ON-02HC-02,02HC
2018,1816,Osram Sylvania,Osram Sylvania Ltée,1 Sylvan,,DRUMMONDVILLE,QC,J2C2S8,Other Manufacturing,WGS84,45.8733,-72.4986,NA,02OF
2021,1842,Chemtrade Logistics Inc.,Chemtrade - Prince George Chlorate,,,Prince George,BC,V2N 2S6,Chemicals,WGS84,53.9289,-122.7314,BC_99,08JC
2021,1845,Lactalis Canada Inc.,Brampton,,,Brampton,ON,L6T 4G7,Other Manufacturing,WGS84,43.7353,-79.6956,NA,02HC
1999,1848,Parmalat Canada,Maple Lane,37 Lancaster Street West,,KITCHENER,ON,N2G4G8,Other Manufacturing,WGS84,43.4594,-80.4834,ON-02GA-02,02GA
1993,1851,"Beatrice Foods Inc., Brookside Dairy",,,,,ON,,,WGS84,44.2514,-76.4967,ON-02MA-03,02MA
2002,1854,NORTH AMERICAN METALS CORP,GOLDEN BEAR MINE,Occupier of Crown Land,In vicinity of Muddy Lake,CASSIAR LAND DISTRICT,BC,,Mining and Quarrying,WGS84,58.1665,-132.2519,BC_182,08BA
2021,1857,Certainteed Corp Insulation Group operating as Ottawa Fibre LP,CertainTeed Insulation Ottawa,,,Ottawa,ON,K1G 3N2,Chemicals,WGS84,45.3808,-75.5964,ON-02LB-03,02LB
2007,1858,OWENS CORNING INSULATING SYSTEMS CANADA LP,CANDIAC PLANT,131 Boul.Montcalm Nord,,CANDIAC,QC,J5R3L7,"Cement, Lime and Other Non-Metallic Minerals",WGS84,45.3972,-73.5186,NA,210
2014,1861,Ontario Power Generation Inc.,Nanticoke Generating Station,34 Haldimand Rd 55 Road South,,NANTICOKE,ON,N0A1L0,Electricity,WGS84,42.7961,-80.05,NA,207
2004,1863,PACKALL PACKAGING INC.,PACKALL PACKAGING INC.,6325 Northam Drive,,MISSISSAUGA,ON,L4V1H8,Other Manufacturing,WGS84,43.6957,-79.6159,NA,02HC
2021,1864,Heaven Hill Distilling Canada Inc.,The Black Velvet Distilling Company,,,Lethbridge,AB,T1H 5E3,Other Manufacturing,WGS84,49.713599,-112.796397,AB-04010601,05AG
2021,1866,DeFehr Furniture Ltd.,DEFEHR FURNITURE LTD.,,,Winnipeg,MB,R2G 1B9,Wood Products,WGS84,49.9311,-97.0669,NA,05OJ
2008,1870,CASCADES CANADA INC.,CASCADES BOXBOARD GROUP TORONTO MILL,495 Commissioners Street,,TORONTO,ON,M4M1A5,Pulp and Paper,WGS84,43.6521,-79.3365,NA,209
2021,1872,Cascades Canada ULC,CASCADES EMBALLAGE CARTON-CAISSE CABANO,,,Temiscouata-sur-le-Lac,QC,G0L 1E0,Pulp and Paper,WGS84,47.67,-68.8625,NA,01AD
2021,1875,PRODUITS KRUGER s.e.c.,Produits Kruger s.e.c.,,,Crabtree,QC,J0K 1B0,Pulp and Paper,WGS84,45.9633,-73.47,NA,02OB
2021,1878,Produits Kruger s.e.c.,"Fabrication région Est, Sherbrooke",,,Sherbrooke,QC,J1M 1Z4,Pulp and Paper,WGS84,45.3667,-71.8542,NA,02OE
2021,1881,Parkland Refining Ltd.,Parkland Bowden Terminal,,,Bowden,AB,T0M 0K0,Oil and Gas Pipelines and Storage,WGS84,51.9501,-114.0177,AB-08010301,05CC
2009,1882,FIBREX INSULATIONS,SARNIA PLANT,561 Scott Road,PO Box 2079,SARNIA,ON,N7T7L4,"Cement, Lime and Other Non-Metallic Minerals",WGS84,42.9501,-82.3965,NA,02FF
2021,1885,Potash Corporation of Saskatchewan Inc.,POTASH CORP - LANIGAN DIVISION,,,Lanigan,SK,S0K 2M0,Mining and Quarrying,WGS84,51.8464,-105.192,NA,05JJ
1996,1888,Pembina Resources Ltd. - Diamond Valley Gas Plant,Diamond Valley Gas Plant,Box 431,10-12-019-02W5,TURNER VALLEY,AB,T0L2A0,,WGS84,50.595,-114.1475,AB-04021201,05BL
1998,1891,Penn West Petroleum Ltd.,Wainwright Unit #4,P.O. Box 400,,WAINWRIGHT,AB,T0B4P0,Other (Except Manufacturing),WGS84,52.9261,-110.7669,AB-09030101,05FE
2019,1902,CNOOC Petroleum North America ULC,Balzac Gas Plant,260219 RR291,,ROCKY VIEW COUNTY,AB,T4A 0P7,Conventional Oil and Gas extraction,WGS84,51.1913,-113.9409,AB-04020803,05BH
2000,1905,Baker Petrolite Corporation,Baker Petrolite Nisku facility,1406 8th St.,,NISKU,AB,T9E7M1,Other (Except Manufacturing),WGS84,53.3195,-113.5279,AB-11020203,05DF
1994,1910,PHILLIPS CABLES LIMITED - DARTMOUTH,,11 MOUNT HOPE AVENUE,,DARTMOUTH,NS,B2Y4K1,Other (Except Manufacturing),WGS84,44.655,-63.5457,NA,01EJ
1995,1913,BICC Phillips Ltd - Vancouver,,8330 Chester Street,,VANCOUVER,BC,V5X3Y7,Other (Except Manufacturing),WGS84,49.2091,-123.0912,BC_103,08MH
1996,1916,BICC Cables Company - Brockville,Brockville Plant,550 KING STREET WEST,,BROCKVILLE,ON,K6V5W4,Other Manufacturing,WGS84,44.5862,-75.6925,ON-02MA-01,02MA
2011,1919,Tyco Thermal Controls Canada Ltd.,Trenton Facility,250 West Street,,TRENTON,ON,K8V5S2,Other Manufacturing,WGS84,44.1167,-77.5864,ON-02HK-01,02HK
2021,1922,General Cable Co,St. Jerome Plant,,,St. Jerome,QC,J7Y 5G2,Other Manufacturing,WGS84,45.775,-74.025,NA,02LC
1993,1925,PHILLIPS CABLES LIMITED - SCARBOROUGH,,,,,ON,,,WGS84,43.7217,-79.285,ON-02HC-06,02HC
2021,1928,GFL Environmental Services Inc.,Revolution Environmental Solutions Acquisition GP Inc. (Hamilton),,,Hamilton,ON,L8L 4E3,Waste Treatment and Disposal,WGS84,43.2631,-79.8325,ON-02HB-01,02HB
2021,1931,Sherwin-Williams Canada Inc,Fort Erie Plant,,,Fort Erie,ON,L2A 5M9,Chemicals,WGS84,42.9175,-78.9306,ON-02HA-01,02HA
2005,1935,PLACER DOME (CLA) LTD,CAMPBELL MINE,10 Mine Road,Mine Road,BALMERTOWN,ON,P0V1C0,Mining and Quarrying,WGS84,51.0686,-93.7494,ON-05QC-02,05QC
2021,1941,GOLDCORP CANADA LTD,Porcupine Gold Mines,,,South Porcupine,ON,P0N 1H0,Mining and Quarrying,WGS84,48.4633,-81.2475,ON-04MD-08,04MD
2008,1942,PLASTMO,PLASTMO LTD.,255 SUMMERLEA ROAD,,BRAMPTON,ON,L6T4T8,Plastics and Rubber,WGS84,43.7348,-79.7,NA,02HC
2021,1944,ARLANXEO Canada Inc.,ARLANXEO WEST,,,Sarnia,ON,N7T 7M2,Chemicals,WGS84,42.9398,-82.4251,NA,02GG
2021,1947,Pinty's Delicious Foods,Port Colborne Poultry Ltd,,,Port Colborne,ON,L3K 5V3,Other Manufacturing,WGS84,42.9108,-79.1879,NA,207
2009,1948,POTASH CORP,PCS CASSIDY LAKE COMPANY,1473 - Route 865,,POODIAC,NB,E4E3M3,Mining and Quarrying,WGS84,45.558,-65.5734,NA,01AP
2021,1951,Dimachem Inc,Dimachem Inc.,,,Windsor,ON,N8X 4G4,Chemicals,WGS84,42.2731,-82.9971,ON-02GHA02,02GH
2009,1953,PPG CANADA INC.,"COATINGS PLANT, MISSISSAUGA",880  AVONHEAD ROAD,,MISSISSAUGA,ON,L5J2Z5,Chemicals,WGS84,43.5014,-79.6333,NA,209
2021,1958,Pratt & Whitney Canada Inc.,Établissement 41,,,Goffs,NS,B2T 1L1,Transportation Equipment Mfg.,WGS84,44.8658,-63.5392,NA,01DG
2021,1961,Pratt & Whitney Canada Inc.,Établissement 01,,,Longueuil,QC,J4G 1A1,Transportation Equipment Mfg.,WGS84,45.5531,-73.495,NA,210
2002,1964,PRATT & WHITNEY CANADA CIE,ÉTABLISSEMENT 02,"333, d'Auvergne",,LONGUEUIL,QC,J4H3Y3,Other Manufacturing,WGS84,45.5456,-73.4983,NA,210
1993,1967,Établissement 5,,,,,QC,,,WGS84,45.5314,-73.4078,NA,02OJ
1996,1970,Praxair Canada Inc.,Specialty Gas Plant,2393 Speers Road,,OAKVILLE,ON,L6J5B4,Chemicals,WGS84,43.4109,-79.7234,NA,209
2020,1976,The Procter & Gamble Company,Procter & Gamble Brockville Plant,1475 California Avenue,,BROCKVILLE,ON,K6V 6K4,Chemicals,WGS84,44.6249,-75.6984,ON-02MA-01,02MA
